[{"city": "Adak", "state": "AK", "latitude": 55.999722, "longitude": -161.207778}, {"city": "Akiachak", "state": "AK", "latitude": 60.891854, "longitude": -161.39233}, {"city": "Akiak", "state": "AK", "latitude": 60.890632, "longitude": -161.199325}, {"city": "Akutan", "state": "AK", "latitude": 54.143012, "longitude": -165.785368}, {"city": "Alakanuk", "state": "AK", "latitude": 62.746967, "longitude": -164.60228}, {"city": "Aleknagik", "state": "AK", "latitude": 59.269688, "longitude": -158.619882}, {"city": "Allakaket", "state": "AK", "latitude": 66.543197, "longitude": -152.712155}, {"city": "Ambler", "state": "AK", "latitude": 67.46951, "longitude": -156.455652}, {"city": "Anaktuvuk Pass", "state": "AK", "latitude": 68.11878, "longitude": -151.679005}, {"city": "Anchor Point", "state": "AK", "latitude": 59.788818, "longitude": -151.732933}, {"city": "Anchorage", "state": "AK", "latitude": 61.211571, "longitude": -149.876077}, {"city": "Anderson", "state": "AK", "latitude": 64.300693, "longitude": -149.1718}, {"city": "Angoon", "state": "AK", "latitude": 57.569832, "longitude": -134.371052}, {"city": "Aniak", "state": "AK", "latitude": 61.691648, "longitude": -157.758502}, {"city": "Anvik", "state": "AK", "latitude": 62.830913, "longitude": -160.130441}, {"city": "Arctic Village", "state": "AK", "latitude": 68.077395, "longitude": -145.423115}, {"city": "Atka", "state": "AK", "latitude": 52.199167, "longitude": -174.213333}, {"city": "Atqasuk", "state": "AK", "latitude": 71.290556, "longitude": -156.788611}, {"city": "Auke Bay", "state": "AK", "latitude": 58.3833, "longitude": -134.6597}, {"city": "Barrow", "state": "AK", "latitude": 71.234637, "longitude": -156.817409}, {"city": "Beaver", "state": "AK", "latitude": 66.33883, "longitude": -147.279803}, {"city": "Bethel", "state": "AK", "latitude": 60.832389, "longitude": -161.824053}, {"city": "Bettles Field", "state": "AK", "latitude": 67.100495, "longitude": -151.062414}, {"city": "Big Lake", "state": "AK", "latitude": 61.5842, "longitude": -149.4401}, {"city": "Brevig Mission", "state": "AK", "latitude": 65.334187, "longitude": -166.478578}, {"city": "Buckland", "state": "AK", "latitude": 65.981052, "longitude": -161.131676}, {"city": "Cantwell", "state": "AK", "latitude": 63.395458, "longitude": -148.89735}, {"city": "Central", "state": "AK", "latitude": 65.468058, "longitude": -144.74886}, {"city": "Chalkyitsik", "state": "AK", "latitude": 66.719, "longitude": -143.638121}, {"city": "Chefornak", "state": "AK", "latitude": 60.153746, "longitude": -164.210294}, {"city": "Chevak", "state": "AK", "latitude": 61.583982, "longitude": -164.776457}, {"city": "Chicken", "state": "AK", "latitude": 64.075, "longitude": -141.933333}, {"city": "Chignik", "state": "AK", "latitude": 56.301639, "longitude": -158.415696}, {"city": "Chignik Lagoon", "state": "AK", "latitude": 56.251277, "longitude": -158.673528}, {"city": "Chignik Lake", "state": "AK", "latitude": 56.255556, "longitude": -158.7625}, {"city": "Chitina", "state": "AK", "latitude": 61.516667, "longitude": -144.436667}, {"city": "Chugiak", "state": "AK", "latitude": 61.409802, "longitude": -149.453736}, {"city": "Circle", "state": "AK", "latitude": 65.824542, "longitude": -144.08262}, {"city": "Clam Gulch", "state": "AK", "latitude": 60.201603, "longitude": -151.422628}, {"city": "Clarks Point", "state": "AK", "latitude": 58.84921, "longitude": -158.451241}, {"city": "Clear", "state": "AK", "latitude": 64.418121, "longitude": -149.139885}, {"city": "Coffman Cove", "state": "AK", "latitude": 55.342222, "longitude": -131.646111}, {"city": "Cold Bay", "state": "AK", "latitude": 55.610952, "longitude": -161.942941}, {"city": "Cooper Landing", "state": "AK", "latitude": 60.476692, "longitude": -149.823514}, {"city": "Copper Center", "state": "AK", "latitude": 61.91581, "longitude": -144.97793}, {"city": "Cordova", "state": "AK", "latitude": 60.102558, "longitude": -147.943316}, {"city": "Craig", "state": "AK", "latitude": 55.47317, "longitude": -133.117081}, {"city": "Crooked Creek", "state": "AK", "latitude": 61.818072, "longitude": -158.002483}, {"city": "Deering", "state": "AK", "latitude": 66.062265, "longitude": -162.711951}, {"city": "Delta Junction", "state": "AK", "latitude": 64.005426, "longitude": -145.613611}, {"city": "Denali National Park", "state": "AK", "latitude": 63.516075, "longitude": -149.539532}, {"city": "Dillingham", "state": "AK", "latitude": 59.059279, "longitude": -158.973533}, {"city": "Douglas", "state": "AK", "latitude": 58.275597, "longitude": -134.395041}, {"city": "Dutch Harbor", "state": "AK", "latitude": 53.362757, "longitude": -167.510656}, {"city": "Eagle", "state": "AK", "latitude": 64.783333, "longitude": -141.2}, {"city": "Eagle River", "state": "AK", "latitude": 61.311357, "longitude": -149.508515}, {"city": "Eek", "state": "AK", "latitude": 60.215058, "longitude": -162.032341}, {"city": "Egegik", "state": "AK", "latitude": 58.206174, "longitude": -157.342202}, {"city": "Eielson Afb", "state": "AK", "latitude": 64.67352, "longitude": -147.08051}, {"city": "Ekwok", "state": "AK", "latitude": 59.362792, "longitude": -157.478211}, {"city": "Elfin Cove", "state": "AK", "latitude": 58.195, "longitude": -136.358333}, {"city": "Elim", "state": "AK", "latitude": 64.621662, "longitude": -162.260371}, {"city": "Elmendorf Afb", "state": "AK", "latitude": 61.251531, "longitude": -149.812667}, {"city": "Emmonak", "state": "AK", "latitude": 62.827404, "longitude": -164.131298}, {"city": "Ester", "state": "AK", "latitude": 64.846667, "longitude": -148.016667}, {"city": "Fairbanks", "state": "AK", "latitude": 64.840238, "longitude": -147.710431}, {"city": "False Pass", "state": "AK", "latitude": 54.841028, "longitude": -163.436845}, {"city": "Fort Greely", "state": "AK", "latitude": 64.036667, "longitude": -145.733333}, {"city": "Fort Richardson", "state": "AK", "latitude": 61.275256, "longitude": -149.675454}, {"city": "Fort Wainwright", "state": "AK", "latitude": 64.828303, "longitude": -147.655673}, {"city": "Fort Yukon", "state": "AK", "latitude": 66.520744, "longitude": -145.306439}, {"city": "Gakona", "state": "AK", "latitude": 62.654744, "longitude": -143.568393}, {"city": "Galena", "state": "AK", "latitude": 64.760784, "longitude": -156.797701}, {"city": "Gambell", "state": "AK", "latitude": 63.776555, "longitude": -171.701685}, {"city": "Girdwood", "state": "AK", "latitude": 60.9425, "longitude": -149.166389}, {"city": "Glennallen", "state": "AK", "latitude": 62.103895, "longitude": -145.661684}, {"city": "Goodnews Bay", "state": "AK", "latitude": 59.085008, "longitude": -161.587146}, {"city": "Grayling", "state": "AK", "latitude": 63.372013, "longitude": -159.404907}, {"city": "Gustavus", "state": "AK", "latitude": 58.42835, "longitude": -135.761542}, {"city": "Haines", "state": "AK", "latitude": 59.251886, "longitude": -135.542032}, {"city": "Healy", "state": "AK", "latitude": 63.917123, "longitude": -149.011128}, {"city": "Holy Cross", "state": "AK", "latitude": 62.192584, "longitude": -159.825092}, {"city": "Homer", "state": "AK", "latitude": 59.665495, "longitude": -151.462644}, {"city": "Hoonah", "state": "AK", "latitude": 58.032237, "longitude": -135.558435}, {"city": "Hooper Bay", "state": "AK", "latitude": 61.537157, "longitude": -165.891045}, {"city": "Hope", "state": "AK", "latitude": 60.92, "longitude": -149.641667}, {"city": "Houston", "state": "AK", "latitude": 61.633611, "longitude": -149.841111}, {"city": "Hughes", "state": "AK", "latitude": 66.038246, "longitude": -154.26443}, {"city": "Huslia", "state": "AK", "latitude": 65.689918, "longitude": -156.291976}, {"city": "Hydaburg", "state": "AK", "latitude": 55.137406, "longitude": -132.633175}, {"city": "Hyder", "state": "AK", "latitude": 55.925867, "longitude": -130.124915}, {"city": "Iliamna", "state": "AK", "latitude": 59.564836, "longitude": -155.462556}, {"city": "Indian", "state": "AK", "latitude": 60.9804, "longitude": -149.4917}, {"city": "Juneau", "state": "AK", "latitude": 58.362767, "longitude": -134.529429}, {"city": "Kake", "state": "AK", "latitude": 56.975833, "longitude": -133.947222}, {"city": "Kaktovik", "state": "AK", "latitude": 70.042889, "longitude": -143.631329}, {"city": "Kalskag", "state": "AK", "latitude": 61.541006, "longitude": -160.3261}, {"city": "Kaltag", "state": "AK", "latitude": 64.330452, "longitude": -158.724251}, {"city": "Karluk", "state": "AK", "latitude": 57.57, "longitude": -154.458333}, {"city": "Kasigluk", "state": "AK", "latitude": 60.895556, "longitude": -162.520556}, {"city": "Kasilof", "state": "AK", "latitude": 60.316365, "longitude": -151.28958}, {"city": "Kenai", "state": "AK", "latitude": 60.614467, "longitude": -151.254556}, {"city": "Ketchikan", "state": "AK", "latitude": 55.372028, "longitude": -131.683175}, {"city": "Kiana", "state": "AK", "latitude": 67.18026, "longitude": -158.152204}, {"city": "King Cove", "state": "AK", "latitude": 55.062848, "longitude": -162.305561}, {"city": "King Salmon", "state": "AK", "latitude": 58.724264, "longitude": -156.641603}, {"city": "Kipnuk", "state": "AK", "latitude": 59.923204, "longitude": -164.101013}, {"city": "Kivalina", "state": "AK", "latitude": 67.665859, "longitude": -163.733617}, {"city": "Klawock", "state": "AK", "latitude": 55.552611, "longitude": -133.055503}, {"city": "Kobuk", "state": "AK", "latitude": 66.912253, "longitude": -157.066864}, {"city": "Kodiak", "state": "AK", "latitude": 57.781967, "longitude": -152.500169}, {"city": "Kongiganak", "state": "AK", "latitude": 60.9888, "longitude": -149.4116}, {"city": "Kotlik", "state": "AK", "latitude": 63.029471, "longitude": -163.554153}, {"city": "Kotzebue", "state": "AK", "latitude": 66.846459, "longitude": -162.126493}, {"city": "Koyuk", "state": "AK", "latitude": 64.931668, "longitude": -161.149957}, {"city": "Koyukuk", "state": "AK", "latitude": 64.883333, "longitude": -157.7}, {"city": "Kwethluk", "state": "AK", "latitude": 60.771814, "longitude": -161.38849}, {"city": "Kwigillingok", "state": "AK", "latitude": 59.881022, "longitude": -162.984938}, {"city": "Lake Minchumina", "state": "AK", "latitude": 63.903884, "longitude": -152.430081}, {"city": "Larsen Bay", "state": "AK", "latitude": 57.538333, "longitude": -153.98}, {"city": "Levelock", "state": "AK", "latitude": 59.371395, "longitude": -154.976815}, {"city": "Lower Kalskag", "state": "AK", "latitude": 61.51377, "longitude": -160.359966}, {"city": "Manley Hot Springs", "state": "AK", "latitude": 65.02058, "longitude": -150.573267}, {"city": "Manokotak", "state": "AK", "latitude": 59.009559, "longitude": -158.989699}, {"city": "Marshall", "state": "AK", "latitude": 61.837087, "longitude": -161.7394}, {"city": "Mc Grath", "state": "AK", "latitude": 62.967153, "longitude": -155.585153}, {"city": "Mekoryuk", "state": "AK", "latitude": 60.365679, "longitude": -166.283583}, {"city": "Metlakatla", "state": "AK", "latitude": 55.121491, "longitude": -131.579001}, {"city": "Meyers Chuck", "state": "AK", "latitude": 55.741667, "longitude": -132.253333}, {"city": "Minto", "state": "AK", "latitude": 65.058399, "longitude": -149.691186}, {"city": "Moose Pass", "state": "AK", "latitude": 60.85852, "longitude": -149.255911}, {"city": "Mountain Village", "state": "AK", "latitude": 62.158913, "longitude": -163.883822}, {"city": "Naknek", "state": "AK", "latitude": 58.885699, "longitude": -156.705405}, {"city": "Napakiak", "state": "AK", "latitude": 60.663758, "longitude": -161.738144}, {"city": "Nenana", "state": "AK", "latitude": 64.557656, "longitude": -149.086744}, {"city": "New Stuyahok", "state": "AK", "latitude": 59.593533, "longitude": -157.297205}, {"city": "Nightmute", "state": "AK", "latitude": 60.479444, "longitude": -164.723889}, {"city": "Nikiski", "state": "AK", "latitude": 60.690278, "longitude": -151.288889}, {"city": "Nikolai", "state": "AK", "latitude": 63.001603, "longitude": -154.381247}, {"city": "Nikolski", "state": "AK", "latitude": 52.988337, "longitude": -168.788427}, {"city": "Ninilchik", "state": "AK", "latitude": 60.010833, "longitude": -151.639604}, {"city": "Noatak", "state": "AK", "latitude": 66.97553, "longitude": -160.509453}, {"city": "Nome", "state": "AK", "latitude": 64.505775, "longitude": -165.310667}, {"city": "Nondalton", "state": "AK", "latitude": 60.030837, "longitude": -154.731675}, {"city": "Noorvik", "state": "AK", "latitude": 66.836353, "longitude": -161.044132}, {"city": "North Pole", "state": "AK", "latitude": 64.78049, "longitude": -147.369353}, {"city": "Northway", "state": "AK", "latitude": 62.964167, "longitude": -141.908611}, {"city": "Nuiqsut", "state": "AK", "latitude": 70.192737, "longitude": -150.997119}, {"city": "Nulato", "state": "AK", "latitude": 64.778024, "longitude": -157.991353}, {"city": "Nunam Iqua", "state": "AK", "latitude": 62.509167, "longitude": -164.453333}, {"city": "Nunapitchuk", "state": "AK", "latitude": 60.896944, "longitude": -162.459444}, {"city": "Old Harbor", "state": "AK", "latitude": 57.202778, "longitude": -153.303889}, {"city": "Ouzinkie", "state": "AK", "latitude": 57.925, "longitude": -152.491667}, {"city": "Palmer", "state": "AK", "latitude": 61.613814, "longitude": -149.065323}, {"city": "Pedro Bay", "state": "AK", "latitude": 59.92238, "longitude": -153.821856}, {"city": "Pelican", "state": "AK", "latitude": 57.960833, "longitude": -136.2275}, {"city": "Perryville", "state": "AK", "latitude": 55.945289, "longitude": -159.259333}, {"city": "Petersburg", "state": "AK", "latitude": 56.827134, "longitude": -133.160683}, {"city": "Pilot Point", "state": "AK", "latitude": 57.595193, "longitude": -157.449272}, {"city": "Pilot Station", "state": "AK", "latitude": 61.946159, "longitude": -162.874716}, {"city": "Platinum", "state": "AK", "latitude": 58.63364, "longitude": -162.043201}, {"city": "Point Baker", "state": "AK", "latitude": 56.307858, "longitude": -133.376372}, {"city": "Point Hope", "state": "AK", "latitude": 68.312058, "longitude": -166.72618}, {"city": "Point Lay", "state": "AK", "latitude": 69.705626, "longitude": -162.906148}, {"city": "Port Alexander", "state": "AK", "latitude": 57.05, "longitude": -135.333333}, {"city": "Port Alsworth", "state": "AK", "latitude": 60.636416, "longitude": -154.433803}, {"city": "Port Heiden", "state": "AK", "latitude": 56.964333, "longitude": -158.566367}, {"city": "Port Lions", "state": "AK", "latitude": 57.866667, "longitude": -152.883333}, {"city": "Prudhoe Bay", "state": "AK", "latitude": 70.070057, "longitude": -148.559636}, {"city": "Quinhagak", "state": "AK", "latitude": 59.738057, "longitude": -161.874938}, {"city": "Rampart", "state": "AK", "latitude": 65.383627, "longitude": -150.011201}, {"city": "Red Devil", "state": "AK", "latitude": 61.735389, "longitude": -157.195969}, {"city": "Ruby", "state": "AK", "latitude": 64.720062, "longitude": -155.503872}, {"city": "Russian Mission", "state": "AK", "latitude": 61.591302, "longitude": -161.558413}, {"city": "Saint George Island", "state": "AK", "latitude": 56.60324, "longitude": -169.547257}, {"city": "Saint Marys", "state": "AK", "latitude": 62.054106, "longitude": -163.205263}, {"city": "Saint Michael", "state": "AK", "latitude": 63.47759, "longitude": -162.109141}, {"city": "Saint Paul Island", "state": "AK", "latitude": 57.178697, "longitude": -170.293408}, {"city": "Salcha", "state": "AK", "latitude": 64.50905, "longitude": -146.952974}, {"city": "Sand Point", "state": "AK", "latitude": 55.319236, "longitude": -160.491435}, {"city": "Savoonga", "state": "AK", "latitude": 63.679737, "longitude": -170.470908}, {"city": "Scammon Bay", "state": "AK", "latitude": 61.845019, "longitude": -165.581945}, {"city": "Selawik", "state": "AK", "latitude": 65.713537, "longitude": -158.534287}, {"city": "Seldovia", "state": "AK", "latitude": 59.436667, "longitude": -151.708333}, {"city": "Seward", "state": "AK", "latitude": 60.132874, "longitude": -149.39849}, {"city": "Shageluk", "state": "AK", "latitude": 62.661092, "longitude": -159.52816}, {"city": "Shaktoolik", "state": "AK", "latitude": 64.375498, "longitude": -161.174589}, {"city": "Shishmaref", "state": "AK", "latitude": 66.230562, "longitude": -166.137276}, {"city": "Shungnak", "state": "AK", "latitude": 66.958141, "longitude": -157.613496}, {"city": "Sitka", "state": "AK", "latitude": 57.051436, "longitude": -135.316569}, {"city": "Skagway", "state": "AK", "latitude": 59.468471, "longitude": -135.301794}, {"city": "Skwentna", "state": "AK", "latitude": 61.958333, "longitude": -151.181667}, {"city": "Sleetmute", "state": "AK", "latitude": 61.634555, "longitude": -157.118284}, {"city": "Soldotna", "state": "AK", "latitude": 60.481778, "longitude": -151.13582}, {"city": "South Naknek", "state": "AK", "latitude": 58.736221, "longitude": -156.850289}, {"city": "Stebbins", "state": "AK", "latitude": 63.478468, "longitude": -162.227355}, {"city": "Sterling", "state": "AK", "latitude": 60.520373, "longitude": -150.849792}, {"city": "Stevens Village", "state": "AK", "latitude": 65.995894, "longitude": -149.118286}, {"city": "Sutton", "state": "AK", "latitude": 61.796667, "longitude": -148.462778}, {"city": "Takotna", "state": "AK", "latitude": 62.948889, "longitude": -155.566389}, {"city": "Talkeetna", "state": "AK", "latitude": 62.260516, "longitude": -150.110097}, {"city": "Tanacross", "state": "AK", "latitude": 63.385278, "longitude": -143.346389}, {"city": "Tanana", "state": "AK", "latitude": 65.156483, "longitude": -152.103747}, {"city": "Tatitlek", "state": "AK", "latitude": 60.864722, "longitude": -146.678611}, {"city": "Teller", "state": "AK", "latitude": 65.240164, "longitude": -166.3833}, {"city": "Tenakee Springs", "state": "AK", "latitude": 57.78, "longitude": -135.216667}, {"city": "Thorne Bay", "state": "AK", "latitude": 55.66086, "longitude": -132.513815}, {"city": "Togiak", "state": "AK", "latitude": 59.066667, "longitude": -160.4}, {"city": "Tok", "state": "AK", "latitude": 63.333333, "longitude": -142.983333}, {"city": "Toksook Bay", "state": "AK", "latitude": 60.537, "longitude": -165.097}, {"city": "Trapper Creek", "state": "AK", "latitude": 61.441361, "longitude": -150.284455}, {"city": "Tuluksak", "state": "AK", "latitude": 61.108848, "longitude": -160.938924}, {"city": "Tuntutuliak", "state": "AK", "latitude": 60.8438, "longitude": -161.6372}, {"city": "Tununak", "state": "AK", "latitude": 60.539322, "longitude": -165.097464}, {"city": "Two Rivers", "state": "AK", "latitude": 64.871944, "longitude": -147.038056}, {"city": "Tyonek", "state": "AK", "latitude": 61.117929, "longitude": -151.348495}, {"city": "Unalakleet", "state": "AK", "latitude": 63.883478, "longitude": -160.788365}, {"city": "Unalaska", "state": "AK", "latitude": 53.887114, "longitude": -166.519855}, {"city": "Valdez", "state": "AK", "latitude": 60.895044, "longitude": -146.195628}, {"city": "Venetie", "state": "AK", "latitude": 67.010446, "longitude": -146.413723}, {"city": "Wainwright", "state": "AK", "latitude": 70.620064, "longitude": -160.012532}, {"city": "Wales", "state": "AK", "latitude": 65.688212, "longitude": -168.520521}, {"city": "Ward Cove", "state": "AK", "latitude": 55.408333, "longitude": -131.725}, {"city": "Wasilla", "state": "AK", "latitude": 61.5814, "longitude": -149.4394}, {"city": "White Mountain", "state": "AK", "latitude": 64.702791, "longitude": -163.42185}, {"city": "Whittier", "state": "AK", "latitude": 60.775, "longitude": -148.683333}, {"city": "Willow", "state": "AK", "latitude": 61.771511, "longitude": -150.188891}, {"city": "Wrangell", "state": "AK", "latitude": 56.433524, "longitude": -132.352918}, {"city": "Yakutat", "state": "AK", "latitude": 59.620211, "longitude": -139.778858}, {"city": "Abbeville", "state": "AL", "latitude": 31.575479, "longitude": -85.279044}, {"city": "Abernant", "state": "AL", "latitude": 33.290278, "longitude": -87.198056}, {"city": "Adamsville", "state": "AL", "latitude": 33.588437, "longitude": -86.959727}, {"city": "Addison", "state": "AL", "latitude": 34.205571, "longitude": -87.194766}, {"city": "Adger", "state": "AL", "latitude": 33.434277, "longitude": -87.167455}, {"city": "Akron", "state": "AL", "latitude": 32.872354, "longitude": -87.708558}, {"city": "Alabaster", "state": "AL", "latitude": 33.236868, "longitude": -86.812861}, {"city": "Alberta", "state": "AL", "latitude": 32.144889, "longitude": -87.342503}, {"city": "Albertville", "state": "AL", "latitude": 34.273859, "longitude": -86.206447}, {"city": "Alexander City", "state": "AL", "latitude": 32.941445, "longitude": -85.951086}, {"city": "Alexandria", "state": "AL", "latitude": 33.780785, "longitude": -85.892447}, {"city": "Aliceville", "state": "AL", "latitude": 33.122813, "longitude": -88.166689}, {"city": "Allgood", "state": "AL", "latitude": 33.911944, "longitude": -86.509444}, {"city": "Alma", "state": "AL", "latitude": 31.463889, "longitude": -87.753889}, {"city": "Alpine", "state": "AL", "latitude": 33.331165, "longitude": -86.208934}, {"city": "Alton", "state": "AL", "latitude": 33.579167, "longitude": -86.6375}, {"city": "Altoona", "state": "AL", "latitude": 34.042916, "longitude": -86.350879}, {"city": "Andalusia", "state": "AL", "latitude": 31.297142, "longitude": -86.490468}, {"city": "Anderson", "state": "AL", "latitude": 34.951777, "longitude": -87.272327}, {"city": "Annemanie", "state": "AL", "latitude": 32.052778, "longitude": -87.570833}, {"city": "Anniston", "state": "AL", "latitude": 33.653896, "longitude": -85.838152}, {"city": "Arab", "state": "AL", "latitude": 34.328339, "longitude": -86.489638}, {"city": "Ardmore", "state": "AL", "latitude": 34.980447, "longitude": -86.834612}, {"city": "Ariton", "state": "AL", "latitude": 31.582996, "longitude": -85.707716}, {"city": "Arley", "state": "AL", "latitude": 34.063234, "longitude": -87.182761}, {"city": "Arlington", "state": "AL", "latitude": 32.066784, "longitude": -87.559691}, {"city": "Ashford", "state": "AL", "latitude": 31.1888, "longitude": -85.253488}, {"city": "Ashland", "state": "AL", "latitude": 33.247363, "longitude": -85.828976}, {"city": "Ashville", "state": "AL", "latitude": 33.837366, "longitude": -86.255167}, {"city": "Athens", "state": "AL", "latitude": 34.803604, "longitude": -86.970733}, {"city": "Atmore", "state": "AL", "latitude": 31.057245, "longitude": -87.487347}, {"city": "Attalla", "state": "AL", "latitude": 34.029597, "longitude": -86.096717}, {"city": "Auburn", "state": "AL", "latitude": 32.602043, "longitude": -85.489001}, {"city": "Auburn University", "state": "AL", "latitude": 32.601, "longitude": -85.4882}, {"city": "Autaugaville", "state": "AL", "latitude": 32.462462, "longitude": -86.714938}, {"city": "Axis", "state": "AL", "latitude": 31.006817, "longitude": -88.04274}, {"city": "Baileyton", "state": "AL", "latitude": 34.268298, "longitude": -86.621299}, {"city": "Banks", "state": "AL", "latitude": 31.836792, "longitude": -85.799844}, {"city": "Bankston", "state": "AL", "latitude": 33.70083, "longitude": -87.68965}, {"city": "Bay Minette", "state": "AL", "latitude": 30.86354, "longitude": -87.76444}, {"city": "Bayou La Batre", "state": "AL", "latitude": 30.407983, "longitude": -88.250697}, {"city": "Bear Creek", "state": "AL", "latitude": 34.213469, "longitude": -87.686083}, {"city": "Beatrice", "state": "AL", "latitude": 31.727324, "longitude": -87.171912}, {"city": "Beaverton", "state": "AL", "latitude": 33.942877, "longitude": -88.01567}, {"city": "Belk", "state": "AL", "latitude": 33.6475, "longitude": -87.931389}, {"city": "Bellamy", "state": "AL", "latitude": 32.448889, "longitude": -88.133611}, {"city": "Belle Mina", "state": "AL", "latitude": 34.656667, "longitude": -86.879167}, {"city": "Bellwood", "state": "AL", "latitude": 31.173056, "longitude": -85.793333}, {"city": "Berry", "state": "AL", "latitude": 33.694485, "longitude": -87.622563}, {"city": "Bessemer", "state": "AL", "latitude": 33.409002, "longitude": -86.947547}, {"city": "Billingsley", "state": "AL", "latitude": 32.610578, "longitude": -86.716301}, {"city": "Birmingham", "state": "AL", "latitude": 33.519, "longitude": -86.8014}, {"city": "Birmingham", "state": "AL", "latitude": 33.401559, "longitude": -86.705511}, {"city": "Black", "state": "AL", "latitude": 31.01318, "longitude": -85.745634}, {"city": "Blountsville", "state": "AL", "latitude": 34.092937, "longitude": -86.568628}, {"city": "Boaz", "state": "AL", "latitude": 34.173889, "longitude": -86.121111}, {"city": "Boaz", "state": "AL", "latitude": 34.173686, "longitude": -86.148003}, {"city": "Boligee", "state": "AL", "latitude": 32.774646, "longitude": -88.026652}, {"city": "Bon Air", "state": "AL", "latitude": 33.263611, "longitude": -86.335556}, {"city": "Bon Secour", "state": "AL", "latitude": 30.328883, "longitude": -87.721355}, {"city": "Booth", "state": "AL", "latitude": 32.500278, "longitude": -86.571944}, {"city": "Boykin", "state": "AL", "latitude": 32.077778, "longitude": -87.281389}, {"city": "Brantley", "state": "AL", "latitude": 31.570963, "longitude": -86.274343}, {"city": "Bremen", "state": "AL", "latitude": 33.973664, "longitude": -87.004281}, {"city": "Brent", "state": "AL", "latitude": 32.93567, "longitude": -87.211387}, {"city": "Brewton", "state": "AL", "latitude": 31.118926, "longitude": -87.067325}, {"city": "Bridgeport", "state": "AL", "latitude": 34.944638, "longitude": -85.727681}, {"city": "Brierfield", "state": "AL", "latitude": 33.042747, "longitude": -86.951672}, {"city": "Brilliant", "state": "AL", "latitude": 34.037702, "longitude": -87.756315}, {"city": "Brooklyn", "state": "AL", "latitude": 31.2625, "longitude": -86.771111}, {"city": "Brookside", "state": "AL", "latitude": 33.637778, "longitude": -86.916667}, {"city": "Brookwood", "state": "AL", "latitude": 33.277523, "longitude": -87.309025}, {"city": "Brownsboro", "state": "AL", "latitude": 34.716733, "longitude": -86.468703}, {"city": "Brundidge", "state": "AL", "latitude": 31.701324, "longitude": -85.817668}, {"city": "Bryant", "state": "AL", "latitude": 34.945026, "longitude": -85.632445}, {"city": "Bucks", "state": "AL", "latitude": 31.010278, "longitude": -88.024167}, {"city": "Buhl", "state": "AL", "latitude": 33.249448, "longitude": -87.718886}, {"city": "Burnt Corn", "state": "AL", "latitude": 31.458009, "longitude": -86.925771}, {"city": "Burnwell", "state": "AL", "latitude": 33.707778, "longitude": -87.0875}, {"city": "Butler", "state": "AL", "latitude": 32.082906, "longitude": -88.206391}, {"city": "Bynum", "state": "AL", "latitude": 33.613056, "longitude": -85.961111}, {"city": "Calera", "state": "AL", "latitude": 33.1098, "longitude": -86.755987}, {"city": "Calvert", "state": "AL", "latitude": 31.160556, "longitude": -88.031111}, {"city": "Camden", "state": "AL", "latitude": 32.004732, "longitude": -87.295049}, {"city": "Camp Hill", "state": "AL", "latitude": 32.782749, "longitude": -85.64738}, {"city": "Campbell", "state": "AL", "latitude": 31.963512, "longitude": -88.006072}, {"city": "Capshaw", "state": "AL", "latitude": 34.773056, "longitude": -86.792778}, {"city": "Carbon Hill", "state": "AL", "latitude": 33.909252, "longitude": -87.540328}, {"city": "Cardiff", "state": "AL", "latitude": 33.645556, "longitude": -86.933611}, {"city": "Carlton", "state": "AL", "latitude": 31.322449, "longitude": -87.837793}, {"city": "Carrollton", "state": "AL", "latitude": 33.248506, "longitude": -88.132122}, {"city": "Castleberry", "state": "AL", "latitude": 31.326113, "longitude": -87.026754}, {"city": "Catherine", "state": "AL", "latitude": 32.182, "longitude": -87.483623}, {"city": "Cecil", "state": "AL", "latitude": 32.300891, "longitude": -86.011241}, {"city": "Cedar Bluff", "state": "AL", "latitude": 34.241662, "longitude": -85.602567}, {"city": "Centre", "state": "AL", "latitude": 34.111592, "longitude": -85.609229}, {"city": "Centreville", "state": "AL", "latitude": 32.950324, "longitude": -87.11924}, {"city": "Chancellor", "state": "AL", "latitude": 31.173379, "longitude": -85.910897}, {"city": "Chapman", "state": "AL", "latitude": 31.671111, "longitude": -86.712222}, {"city": "Chatom", "state": "AL", "latitude": 31.487638, "longitude": -88.269887}, {"city": "Chelsea", "state": "AL", "latitude": 33.371582, "longitude": -86.614132}, {"city": "Cherokee", "state": "AL", "latitude": 34.744188, "longitude": -87.972445}, {"city": "Childersburg", "state": "AL", "latitude": 33.266928, "longitude": -86.337622}, {"city": "Choccolocco", "state": "AL", "latitude": 33.659167, "longitude": -85.703611}, {"city": "Chunchula", "state": "AL", "latitude": 30.991178, "longitude": -88.131126}, {"city": "Citronelle", "state": "AL", "latitude": 31.042533, "longitude": -88.254949}, {"city": "Clanton", "state": "AL", "latitude": 32.835532, "longitude": -86.642472}, {"city": "Clay", "state": "AL", "latitude": 33.7025, "longitude": -86.599722}, {"city": "Clayton", "state": "AL", "latitude": 31.887413, "longitude": -85.450932}, {"city": "Cleveland", "state": "AL", "latitude": 33.992106, "longitude": -86.559355}, {"city": "Clinton", "state": "AL", "latitude": 32.913611, "longitude": -87.9925}, {"city": "Clio", "state": "AL", "latitude": 31.68521, "longitude": -85.590419}, {"city": "Clopton", "state": "AL", "latitude": 31.602843, "longitude": -85.482308}, {"city": "Cloverdale", "state": "AL", "latitude": 34.938611, "longitude": -87.771389}, {"city": "Coaling", "state": "AL", "latitude": 33.158889, "longitude": -87.340833}, {"city": "Coden", "state": "AL", "latitude": 30.418834, "longitude": -88.168276}, {"city": "Coffee Springs", "state": "AL", "latitude": 31.138758, "longitude": -85.918224}, {"city": "Coffeeville", "state": "AL", "latitude": 31.78428, "longitude": -88.071542}, {"city": "Coker", "state": "AL", "latitude": 33.252612, "longitude": -87.636528}, {"city": "Collinsville", "state": "AL", "latitude": 34.267957, "longitude": -85.861969}, {"city": "Columbia", "state": "AL", "latitude": 31.335235, "longitude": -85.145488}, {"city": "Columbiana", "state": "AL", "latitude": 33.176964, "longitude": -86.616145}, {"city": "Cook Springs", "state": "AL", "latitude": 33.589722, "longitude": -86.361944}, {"city": "Coosada", "state": "AL", "latitude": 32.496667, "longitude": -86.331667}, {"city": "Cordova", "state": "AL", "latitude": 33.768033, "longitude": -87.18406}, {"city": "Cottondale", "state": "AL", "latitude": 33.176667, "longitude": -87.387051}, {"city": "Cottonton", "state": "AL", "latitude": 32.146667, "longitude": -85.073889}, {"city": "Cottonwood", "state": "AL", "latitude": 31.098934, "longitude": -85.375665}, {"city": "Courtland", "state": "AL", "latitude": 34.671866, "longitude": -87.314255}, {"city": "Cowarts", "state": "AL", "latitude": 31.2, "longitude": -85.304722}, {"city": "Coy", "state": "AL", "latitude": 31.888851, "longitude": -87.392558}, {"city": "Cragford", "state": "AL", "latitude": 33.217148, "longitude": -85.710797}, {"city": "Crane Hill", "state": "AL", "latitude": 34.082117, "longitude": -87.048395}, {"city": "Creola", "state": "AL", "latitude": 30.901267, "longitude": -88.017414}, {"city": "Cropwell", "state": "AL", "latitude": 33.506448, "longitude": -86.280026}, {"city": "Crossville", "state": "AL", "latitude": 34.258784, "longitude": -86.030575}, {"city": "Cuba", "state": "AL", "latitude": 32.410973, "longitude": -88.361083}, {"city": "Cullman", "state": "AL", "latitude": 34.176146, "longitude": -86.829777}, {"city": "Cusseta", "state": "AL", "latitude": 32.803194, "longitude": -85.215791}, {"city": "Dadeville", "state": "AL", "latitude": 32.82239, "longitude": -85.770395}, {"city": "Daleville", "state": "AL", "latitude": 31.281091, "longitude": -85.730473}, {"city": "Danville", "state": "AL", "latitude": 34.452189, "longitude": -87.053187}, {"city": "Daphne", "state": "AL", "latitude": 30.61972, "longitude": -87.889522}, {"city": "Dauphin Island", "state": "AL", "latitude": 30.252057, "longitude": -88.109644}, {"city": "Daviston", "state": "AL", "latitude": 33.033471, "longitude": -85.753831}, {"city": "Dawson", "state": "AL", "latitude": 34.356838, "longitude": -85.929161}, {"city": "De Armanville", "state": "AL", "latitude": 33.626389, "longitude": -85.751389}, {"city": "Deatsville", "state": "AL", "latitude": 32.613405, "longitude": -86.338211}, {"city": "Decatur", "state": "AL", "latitude": 34.589599, "longitude": -86.98868}, {"city": "Deer Park", "state": "AL", "latitude": 31.184892, "longitude": -88.32731}, {"city": "Delmar", "state": "AL", "latitude": 34.17, "longitude": -87.605833}, {"city": "Delta", "state": "AL", "latitude": 33.457303, "longitude": -85.679279}, {"city": "Demopolis", "state": "AL", "latitude": 32.490792, "longitude": -87.839669}, {"city": "Detroit", "state": "AL", "latitude": 34.010874, "longitude": -88.16063}, {"city": "Dickinson", "state": "AL", "latitude": 31.717167, "longitude": -87.656929}, {"city": "Dixons Mills", "state": "AL", "latitude": 32.067209, "longitude": -87.745356}, {"city": "Docena", "state": "AL", "latitude": 33.559444, "longitude": -86.931111}, {"city": "Dolomite", "state": "AL", "latitude": 33.465424, "longitude": -86.956435}, {"city": "Dora", "state": "AL", "latitude": 33.734947, "longitude": -87.040148}, {"city": "Dothan", "state": "AL", "latitude": 31.202888, "longitude": -85.418036}, {"city": "Double Springs", "state": "AL", "latitude": 34.138682, "longitude": -87.397431}, {"city": "Douglas", "state": "AL", "latitude": 34.173611, "longitude": -86.323611}, {"city": "Dozier", "state": "AL", "latitude": 31.506614, "longitude": -86.366315}, {"city": "Duncanville", "state": "AL", "latitude": 33.082815, "longitude": -87.494977}, {"city": "Dutton", "state": "AL", "latitude": 34.604558, "longitude": -85.906729}, {"city": "East Tallassee", "state": "AL", "latitude": 32.607222, "longitude": -85.808056}, {"city": "Eastaboga", "state": "AL", "latitude": 33.603132, "longitude": -85.96075}, {"city": "Echola", "state": "AL", "latitude": 33.316559, "longitude": -87.807202}, {"city": "Eclectic", "state": "AL", "latitude": 32.65419, "longitude": -86.031614}, {"city": "Edwardsville", "state": "AL", "latitude": 33.707222, "longitude": -85.509167}, {"city": "Eight Mile", "state": "AL", "latitude": 30.795074, "longitude": -88.182311}, {"city": "Elba", "state": "AL", "latitude": 31.41373, "longitude": -86.077728}, {"city": "Elberta", "state": "AL", "latitude": 30.394239, "longitude": -87.58896}, {"city": "Eldridge", "state": "AL", "latitude": 33.931546, "longitude": -87.619397}, {"city": "Elkmont", "state": "AL", "latitude": 34.915241, "longitude": -86.910452}, {"city": "Elmore", "state": "AL", "latitude": 32.545378, "longitude": -86.316134}, {"city": "Elrod", "state": "AL", "latitude": 33.343678, "longitude": -87.801429}, {"city": "Emelle", "state": "AL", "latitude": 32.754963, "longitude": -88.305747}, {"city": "Empire", "state": "AL", "latitude": 33.825589, "longitude": -87.016139}, {"city": "Enterprise", "state": "AL", "latitude": 31.340789, "longitude": -85.842111}, {"city": "Epes", "state": "AL", "latitude": 32.763371, "longitude": -88.161443}, {"city": "Equality", "state": "AL", "latitude": 32.813908, "longitude": -86.105064}, {"city": "Estillfork", "state": "AL", "latitude": 34.913017, "longitude": -86.171571}, {"city": "Ethelsville", "state": "AL", "latitude": 33.386816, "longitude": -88.221987}, {"city": "Eufaula", "state": "AL", "latitude": 31.905063, "longitude": -85.165605}, {"city": "Eutaw", "state": "AL", "latitude": 32.888871, "longitude": -87.930297}, {"city": "Eva", "state": "AL", "latitude": 34.347778, "longitude": -86.704427}, {"city": "Excel", "state": "AL", "latitude": 31.427778, "longitude": -87.341389}, {"city": "Fackler", "state": "AL", "latitude": 34.82589, "longitude": -85.984648}, {"city": "Fairfield", "state": "AL", "latitude": 33.473494, "longitude": -86.918262}, {"city": "Fairhope", "state": "AL", "latitude": 30.50116, "longitude": -87.883546}, {"city": "Falkville", "state": "AL", "latitude": 34.347653, "longitude": -86.913086}, {"city": "Faunsdale", "state": "AL", "latitude": 32.423259, "longitude": -87.618079}, {"city": "Fayette", "state": "AL", "latitude": 33.697397, "longitude": -87.834647}, {"city": "Fitzpatrick", "state": "AL", "latitude": 32.151607, "longitude": -85.888329}, {"city": "Five Points", "state": "AL", "latitude": 33.042408, "longitude": -85.324264}, {"city": "Flat Rock", "state": "AL", "latitude": 34.807598, "longitude": -85.708372}, {"city": "Flomaton", "state": "AL", "latitude": 31.040233, "longitude": -87.266365}, {"city": "Florala", "state": "AL", "latitude": 31.017194, "longitude": -86.338528}, {"city": "Florence", "state": "AL", "latitude": 34.830547, "longitude": -87.655985}, {"city": "Foley", "state": "AL", "latitude": 30.400664, "longitude": -87.685737}, {"city": "Forest Home", "state": "AL", "latitude": 31.85318, "longitude": -86.786377}, {"city": "Forkland", "state": "AL", "latitude": 32.644661, "longitude": -87.881676}, {"city": "Fort Davis", "state": "AL", "latitude": 32.28945, "longitude": -85.700688}, {"city": "Fort Deposit", "state": "AL", "latitude": 31.995979, "longitude": -86.576142}, {"city": "Fort Mitchell", "state": "AL", "latitude": 32.341389, "longitude": -85.021667}, {"city": "Fort Payne", "state": "AL", "latitude": 34.436792, "longitude": -85.712394}, {"city": "Fort Rucker", "state": "AL", "latitude": 31.348011, "longitude": -85.721374}, {"city": "Fosters", "state": "AL", "latitude": 33.135859, "longitude": -87.735688}, {"city": "Franklin", "state": "AL", "latitude": 31.723815, "longitude": -87.441237}, {"city": "Frankville", "state": "AL", "latitude": 31.64684, "longitude": -88.133185}, {"city": "Frisco City", "state": "AL", "latitude": 31.423478, "longitude": -87.381744}, {"city": "Fruitdale", "state": "AL", "latitude": 31.348843, "longitude": -88.376597}, {"city": "Fruithurst", "state": "AL", "latitude": 33.771732, "longitude": -85.43814}, {"city": "Fulton", "state": "AL", "latitude": 31.790947, "longitude": -87.708065}, {"city": "Fultondale", "state": "AL", "latitude": 33.611283, "longitude": -86.813614}, {"city": "Furman", "state": "AL", "latitude": 32.006667, "longitude": -86.966944}, {"city": "Fyffe", "state": "AL", "latitude": 34.437284, "longitude": -85.928849}, {"city": "Gadsden", "state": "AL", "latitude": 33.997248, "longitude": -86.010279}, {"city": "Gainestown", "state": "AL", "latitude": 31.425822, "longitude": -87.682176}, {"city": "Gainesville", "state": "AL", "latitude": 32.908364, "longitude": -88.271558}, {"city": "Gallant", "state": "AL", "latitude": 33.997586, "longitude": -86.234606}, {"city": "Gallion", "state": "AL", "latitude": 32.529771, "longitude": -87.698542}, {"city": "Gantt", "state": "AL", "latitude": 31.416909, "longitude": -86.419836}, {"city": "Garden City", "state": "AL", "latitude": 34.014444, "longitude": -86.746944}, {"city": "Gardendale", "state": "AL", "latitude": 33.71891, "longitude": -86.822481}, {"city": "Gaylesville", "state": "AL", "latitude": 34.357324, "longitude": -85.558893}, {"city": "Geneva", "state": "AL", "latitude": 31.041445, "longitude": -85.884748}, {"city": "Georgiana", "state": "AL", "latitude": 31.628662, "longitude": -86.733965}, {"city": "Geraldine", "state": "AL", "latitude": 34.343864, "longitude": -86.040393}, {"city": "Gilbertown", "state": "AL", "latitude": 31.866602, "longitude": -88.326514}, {"city": "Glen Allen", "state": "AL", "latitude": 33.899444, "longitude": -87.730278}, {"city": "Glenwood", "state": "AL", "latitude": 31.664143, "longitude": -86.170972}, {"city": "Goodsprings", "state": "AL", "latitude": 33.668889, "longitude": -87.231667}, {"city": "Goodwater", "state": "AL", "latitude": 33.074642, "longitude": -86.078149}, {"city": "Goodway", "state": "AL", "latitude": 31.336667, "longitude": -87.425833}, {"city": "Gordo", "state": "AL", "latitude": 33.346917, "longitude": -87.900504}, {"city": "Gordon", "state": "AL", "latitude": 31.10019, "longitude": -85.123412}, {"city": "Goshen", "state": "AL", "latitude": 31.82497, "longitude": -86.104851}, {"city": "Grady", "state": "AL", "latitude": 32.019397, "longitude": -86.129246}, {"city": "Graham", "state": "AL", "latitude": 33.462976, "longitude": -85.334034}, {"city": "Grand Bay", "state": "AL", "latitude": 30.498288, "longitude": -88.32825}, {"city": "Grant", "state": "AL", "latitude": 34.495902, "longitude": -86.259041}, {"city": "Graysville", "state": "AL", "latitude": 33.63356, "longitude": -86.948221}, {"city": "Green Pond", "state": "AL", "latitude": 33.225, "longitude": -87.126389}, {"city": "Greensboro", "state": "AL", "latitude": 32.716721, "longitude": -87.590494}, {"city": "Greenville", "state": "AL", "latitude": 31.810036, "longitude": -86.622919}, {"city": "Grove Hill", "state": "AL", "latitude": 31.675502, "longitude": -87.763571}, {"city": "Groveoak", "state": "AL", "latitude": 34.435874, "longitude": -86.040023}, {"city": "Guin", "state": "AL", "latitude": 33.967624, "longitude": -87.90238}, {"city": "Gulf Shores", "state": "AL", "latitude": 30.268954, "longitude": -87.712795}, {"city": "Guntersville", "state": "AL", "latitude": 34.32193, "longitude": -86.305463}, {"city": "Gurley", "state": "AL", "latitude": 34.713964, "longitude": -86.394028}, {"city": "Hackleburg", "state": "AL", "latitude": 34.267803, "longitude": -87.860762}, {"city": "Haleyville", "state": "AL", "latitude": 34.231423, "longitude": -87.593811}, {"city": "Hamilton", "state": "AL", "latitude": 34.153413, "longitude": -88.008521}, {"city": "Hanceville", "state": "AL", "latitude": 34.051569, "longitude": -86.784844}, {"city": "Hardaway", "state": "AL", "latitude": 32.312939, "longitude": -85.883837}, {"city": "Harpersville", "state": "AL", "latitude": 33.36746, "longitude": -86.429441}, {"city": "Hartford", "state": "AL", "latitude": 31.08598, "longitude": -85.719204}, {"city": "Hartselle", "state": "AL", "latitude": 34.448206, "longitude": -86.924235}, {"city": "Harvest", "state": "AL", "latitude": 34.82732, "longitude": -86.749929}, {"city": "Hatchechubbee", "state": "AL", "latitude": 32.284531, "longitude": -85.302882}, {"city": "Hayden", "state": "AL", "latitude": 33.885806, "longitude": -86.81767}, {"city": "Hayneville", "state": "AL", "latitude": 32.195707, "longitude": -86.654994}, {"city": "Hazel Green", "state": "AL", "latitude": 34.949627, "longitude": -86.593484}, {"city": "Headland", "state": "AL", "latitude": 31.353406, "longitude": -85.332277}, {"city": "Heflin", "state": "AL", "latitude": 33.611515, "longitude": -85.588471}, {"city": "Helena", "state": "AL", "latitude": 33.316978, "longitude": -86.813786}, {"city": "Henagar", "state": "AL", "latitude": 34.618604, "longitude": -85.727381}, {"city": "Higdon", "state": "AL", "latitude": 34.873247, "longitude": -85.622507}, {"city": "Highland Home", "state": "AL", "latitude": 31.928292, "longitude": -86.297111}, {"city": "Hillsboro", "state": "AL", "latitude": 34.64763, "longitude": -87.180379}, {"city": "Hodges", "state": "AL", "latitude": 34.341664, "longitude": -87.959023}, {"city": "Hollins", "state": "AL", "latitude": 33.1175, "longitude": -86.144444}, {"city": "Holly Pond", "state": "AL", "latitude": 34.190085, "longitude": -86.617441}, {"city": "Hollytree", "state": "AL", "latitude": 34.798979, "longitude": -86.233627}, {"city": "Hollywood", "state": "AL", "latitude": 34.730428, "longitude": -85.953173}, {"city": "Holy Trinity", "state": "AL", "latitude": 32.222222, "longitude": -85.005278}, {"city": "Honoraville", "state": "AL", "latitude": 31.878397, "longitude": -86.398064}, {"city": "Hope Hull", "state": "AL", "latitude": 32.224256, "longitude": -86.393189}, {"city": "Horton", "state": "AL", "latitude": 34.190033, "longitude": -86.317318}, {"city": "Houston", "state": "AL", "latitude": 34.118042, "longitude": -87.26183}, {"city": "Huntsville", "state": "AL", "latitude": 34.726866, "longitude": -86.567318}, {"city": "Hurtsboro", "state": "AL", "latitude": 32.245429, "longitude": -85.395903}, {"city": "Huxford", "state": "AL", "latitude": 31.22, "longitude": -87.461944}, {"city": "Ider", "state": "AL", "latitude": 34.735059, "longitude": -85.641577}, {"city": "Irvington", "state": "AL", "latitude": 30.480241, "longitude": -88.239563}, {"city": "Jachin", "state": "AL", "latitude": 32.244174, "longitude": -88.233356}, {"city": "Jack", "state": "AL", "latitude": 31.552392, "longitude": -86.043083}, {"city": "Jackson", "state": "AL", "latitude": 31.513098, "longitude": -87.867192}, {"city": "Jacksons Gap", "state": "AL", "latitude": 32.879698, "longitude": -85.848662}, {"city": "Jacksonville", "state": "AL", "latitude": 33.830966, "longitude": -85.77518}, {"city": "Jasper", "state": "AL", "latitude": 33.871672, "longitude": -87.249144}, {"city": "Jefferson", "state": "AL", "latitude": 32.386667, "longitude": -87.898056}, {"city": "Jemison", "state": "AL", "latitude": 32.980539, "longitude": -86.718052}, {"city": "Jones", "state": "AL", "latitude": 32.608515, "longitude": -86.889266}, {"city": "Joppa", "state": "AL", "latitude": 34.283739, "longitude": -86.551939}, {"city": "Kansas", "state": "AL", "latitude": 33.901667, "longitude": -87.551944}, {"city": "Kellerman", "state": "AL", "latitude": 33.340556, "longitude": -87.304722}, {"city": "Kellyton", "state": "AL", "latitude": 32.979068, "longitude": -86.048397}, {"city": "Kennedy", "state": "AL", "latitude": 33.574964, "longitude": -88.05172}, {"city": "Kent", "state": "AL", "latitude": 32.618889, "longitude": -85.948611}, {"city": "Killen", "state": "AL", "latitude": 34.901632, "longitude": -87.508185}, {"city": "Kimberly", "state": "AL", "latitude": 33.768355, "longitude": -86.808417}, {"city": "Kinston", "state": "AL", "latitude": 31.262118, "longitude": -86.069532}, {"city": "Knoxville", "state": "AL", "latitude": 32.982423, "longitude": -87.791855}, {"city": "Laceys Spring", "state": "AL", "latitude": 34.499647, "longitude": -86.612869}, {"city": "Lafayette", "state": "AL", "latitude": 32.925237, "longitude": -85.442563}, {"city": "Lanett", "state": "AL", "latitude": 32.861609, "longitude": -85.21608}, {"city": "Langston", "state": "AL", "latitude": 34.497831, "longitude": -86.10563}, {"city": "Lapine", "state": "AL", "latitude": 31.985423, "longitude": -86.278534}, {"city": "Lawley", "state": "AL", "latitude": 32.864558, "longitude": -86.956708}, {"city": "Leeds", "state": "AL", "latitude": 33.528333, "longitude": -86.574824}, {"city": "Leesburg", "state": "AL", "latitude": 34.191083, "longitude": -85.77051}, {"city": "Leighton", "state": "AL", "latitude": 34.710982, "longitude": -87.522133}, {"city": "Lenox", "state": "AL", "latitude": 31.327261, "longitude": -87.19671}, {"city": "Leroy", "state": "AL", "latitude": 31.491021, "longitude": -87.968672}, {"city": "Lester", "state": "AL", "latitude": 34.918364, "longitude": -87.143396}, {"city": "Letohatchee", "state": "AL", "latitude": 32.086199, "longitude": -86.488013}, {"city": "Lexington", "state": "AL", "latitude": 34.955924, "longitude": -87.393519}, {"city": "Lillian", "state": "AL", "latitude": 30.39724, "longitude": -87.474452}, {"city": "Lincoln", "state": "AL", "latitude": 33.605913, "longitude": -86.111152}, {"city": "Linden", "state": "AL", "latitude": 32.305343, "longitude": -87.795358}, {"city": "Lineville", "state": "AL", "latitude": 33.328613, "longitude": -85.734609}, {"city": "Lisman", "state": "AL", "latitude": 32.217722, "longitude": -88.323419}, {"city": "Little River", "state": "AL", "latitude": 31.22459, "longitude": -87.754796}, {"city": "Livingston", "state": "AL", "latitude": 32.588509, "longitude": -88.173592}, {"city": "Loachapoka", "state": "AL", "latitude": 32.604167, "longitude": -85.593333}, {"city": "Lockhart", "state": "AL", "latitude": 31.010278, "longitude": -86.349722}, {"city": "Locust Fork", "state": "AL", "latitude": 33.9075, "longitude": -86.615278}, {"city": "Logan", "state": "AL", "latitude": 34.184079, "longitude": -87.038115}, {"city": "Louisville", "state": "AL", "latitude": 31.794262, "longitude": -85.558062}, {"city": "Lower Peach Tree", "state": "AL", "latitude": 31.850365, "longitude": -87.568224}, {"city": "Lowndesboro", "state": "AL", "latitude": 32.300292, "longitude": -86.609868}, {"city": "Loxley", "state": "AL", "latitude": 30.617964, "longitude": -87.75624}, {"city": "Luverne", "state": "AL", "latitude": 31.70739, "longitude": -86.256601}, {"city": "Lynn", "state": "AL", "latitude": 34.052984, "longitude": -87.539814}, {"city": "Madison", "state": "AL", "latitude": 34.6578, "longitude": -86.8056}, {"city": "Madison", "state": "AL", "latitude": 34.7837, "longitude": -86.7486}, {"city": "Magnolia", "state": "AL", "latitude": 32.141931, "longitude": -87.699815}, {"city": "Magnolia Springs", "state": "AL", "latitude": 30.394497, "longitude": -87.785781}, {"city": "Malcolm", "state": "AL", "latitude": 31.191111, "longitude": -88.0075}, {"city": "Malvern", "state": "AL", "latitude": 31.157528, "longitude": -85.522327}, {"city": "Maplesville", "state": "AL", "latitude": 32.804507, "longitude": -86.871704}, {"city": "Marbury", "state": "AL", "latitude": 32.639373, "longitude": -86.510138}, {"city": "Margaret", "state": "AL", "latitude": 33.686111, "longitude": -86.475}, {"city": "Marion", "state": "AL", "latitude": 32.646301, "longitude": -87.331437}, {"city": "Marion Junction", "state": "AL", "latitude": 32.426589, "longitude": -87.270181}, {"city": "Mathews", "state": "AL", "latitude": 32.128288, "longitude": -86.041262}, {"city": "Maylene", "state": "AL", "latitude": 33.231694, "longitude": -86.872745}, {"city": "Mc Calla", "state": "AL", "latitude": 33.284546, "longitude": -87.102379}, {"city": "Mc Intosh", "state": "AL", "latitude": 31.236108, "longitude": -88.051102}, {"city": "Mc Kenzie", "state": "AL", "latitude": 31.54495, "longitude": -86.735615}, {"city": "Mc Shan", "state": "AL", "latitude": 33.381667, "longitude": -88.143333}, {"city": "Mc Williams", "state": "AL", "latitude": 31.845556, "longitude": -87.088333}, {"city": "Megargel", "state": "AL", "latitude": 31.379722, "longitude": -87.428333}, {"city": "Melvin", "state": "AL", "latitude": 31.930278, "longitude": -88.458889}, {"city": "Mentone", "state": "AL", "latitude": 34.587236, "longitude": -85.577728}, {"city": "Meridianville", "state": "AL", "latitude": 34.861779, "longitude": -86.578879}, {"city": "Mexia", "state": "AL", "latitude": 31.506944, "longitude": -87.388333}, {"city": "Midland City", "state": "AL", "latitude": 31.36716, "longitude": -85.513033}, {"city": "Midway", "state": "AL", "latitude": 32.09552, "longitude": -85.531523}, {"city": "Millbrook", "state": "AL", "latitude": 32.499485, "longitude": -86.364125}, {"city": "Millerville", "state": "AL", "latitude": 33.158959, "longitude": -85.969001}, {"city": "Millport", "state": "AL", "latitude": 33.54013, "longitude": -88.200003}, {"city": "Millry", "state": "AL", "latitude": 31.626871, "longitude": -88.355872}, {"city": "Minter", "state": "AL", "latitude": 32.095387, "longitude": -86.92497}, {"city": "Mobile", "state": "AL", "latitude": 30.6959, "longitude": -88.0434}, {"city": "Monroeville", "state": "AL", "latitude": 31.51533, "longitude": -87.340993}, {"city": "Montevallo", "state": "AL", "latitude": 33.124765, "longitude": -86.862228}, {"city": "Montgomery", "state": "AL", "latitude": 32.3743, "longitude": -86.3118}, {"city": "Montrose", "state": "AL", "latitude": 30.565556, "longitude": -87.901667}, {"city": "Moody", "state": "AL", "latitude": 33.584132, "longitude": -86.51557}, {"city": "Mooresville", "state": "AL", "latitude": 34.628333, "longitude": -86.880278}, {"city": "Morris", "state": "AL", "latitude": 33.739172, "longitude": -86.772551}, {"city": "Morvin", "state": "AL", "latitude": 31.967305, "longitude": -87.972897}, {"city": "Moulton", "state": "AL", "latitude": 34.505836, "longitude": -87.222385}, {"city": "Moundville", "state": "AL", "latitude": 32.978853, "longitude": -87.615134}, {"city": "Mount Hope", "state": "AL", "latitude": 34.462969, "longitude": -87.451453}, {"city": "Mount Meigs", "state": "AL", "latitude": 32.3625, "longitude": -86.101944}, {"city": "Mount Olive", "state": "AL", "latitude": 33.67678, "longitude": -86.87171}, {"city": "Mount Vernon", "state": "AL", "latitude": 31.097375, "longitude": -88.035044}, {"city": "Mulga", "state": "AL", "latitude": 33.540696, "longitude": -87.043998}, {"city": "Munford", "state": "AL", "latitude": 33.540987, "longitude": -85.936322}, {"city": "Muscadine", "state": "AL", "latitude": 33.752913, "longitude": -85.378907}, {"city": "Muscle Shoals", "state": "AL", "latitude": 34.756136, "longitude": -87.630443}, {"city": "Myrtlewood", "state": "AL", "latitude": 32.250278, "longitude": -87.949722}, {"city": "Nanafalia", "state": "AL", "latitude": 32.112778, "longitude": -87.988056}, {"city": "Natural Bridge", "state": "AL", "latitude": 34.093333, "longitude": -87.601944}, {"city": "Nauvoo", "state": "AL", "latitude": 33.929859, "longitude": -87.432449}, {"city": "Needham", "state": "AL", "latitude": 32.012165, "longitude": -88.345798}, {"city": "New Brockton", "state": "AL", "latitude": 31.36898, "longitude": -85.940386}, {"city": "New Castle", "state": "AL", "latitude": 33.648889, "longitude": -86.768611}, {"city": "New Hope", "state": "AL", "latitude": 34.549445, "longitude": -86.3961}, {"city": "New Market", "state": "AL", "latitude": 34.899991, "longitude": -86.448742}, {"city": "Newbern", "state": "AL", "latitude": 32.551465, "longitude": -87.561472}, {"city": "Newton", "state": "AL", "latitude": 31.331064, "longitude": -85.599229}, {"city": "Newville", "state": "AL", "latitude": 31.440295, "longitude": -85.328741}, {"city": "Normal", "state": "AL", "latitude": 34.788889, "longitude": -86.571944}, {"city": "Northport", "state": "AL", "latitude": 33.2605, "longitude": -87.5872}, {"city": "Notasulga", "state": "AL", "latitude": 32.543727, "longitude": -85.68707}, {"city": "Oak Hill", "state": "AL", "latitude": 31.925, "longitude": -87.0825}, {"city": "Oakman", "state": "AL", "latitude": 33.700174, "longitude": -87.368574}, {"city": "Odenville", "state": "AL", "latitude": 33.675611, "longitude": -86.408952}, {"city": "Ohatchee", "state": "AL", "latitude": 33.778779, "longitude": -86.025357}, {"city": "Oneonta", "state": "AL", "latitude": 33.925858, "longitude": -86.474118}, {"city": "Opelika", "state": "AL", "latitude": 32.627771, "longitude": -85.358629}, {"city": "Opp", "state": "AL", "latitude": 31.279861, "longitude": -86.257105}, {"city": "Orange Beach", "state": "AL", "latitude": 30.290596, "longitude": -87.555888}, {"city": "Orrville", "state": "AL", "latitude": 32.294859, "longitude": -87.221368}, {"city": "Owens Cross Roads", "state": "AL", "latitude": 34.612859, "longitude": -86.466577}, {"city": "Oxford", "state": "AL", "latitude": 33.596829, "longitude": -85.83347}, {"city": "Ozark", "state": "AL", "latitude": 31.439069, "longitude": -85.643629}, {"city": "Paint Rock", "state": "AL", "latitude": 34.667122, "longitude": -86.332562}, {"city": "Palmerdale", "state": "AL", "latitude": 33.738611, "longitude": -86.646111}, {"city": "Panola", "state": "AL", "latitude": 32.950556, "longitude": -88.268889}, {"city": "Pansey", "state": "AL", "latitude": 31.131778, "longitude": -85.238549}, {"city": "Parrish", "state": "AL", "latitude": 33.721307, "longitude": -87.265773}, {"city": "Pelham", "state": "AL", "latitude": 33.31046, "longitude": -86.806176}, {"city": "Pell City", "state": "AL", "latitude": 33.597889, "longitude": -86.343151}, {"city": "Pennington", "state": "AL", "latitude": 32.226245, "longitude": -88.0931}, {"city": "Perdido", "state": "AL", "latitude": 30.98058, "longitude": -87.628374}, {"city": "Perdue Hill", "state": "AL", "latitude": 31.513889, "longitude": -87.493333}, {"city": "Perote", "state": "AL", "latitude": 32.003459, "longitude": -85.74773}, {"city": "Peterman", "state": "AL", "latitude": 31.589953, "longitude": -87.259984}, {"city": "Peterson", "state": "AL", "latitude": 33.2325, "longitude": -87.423611}, {"city": "Petrey", "state": "AL", "latitude": 31.848611, "longitude": -86.207778}, {"city": "Phenix City", "state": "AL", "latitude": 32.484, "longitude": -85.0911}, {"city": "Phenix City", "state": "AL", "latitude": 32.407816, "longitude": -85.095082}, {"city": "Phil Campbell", "state": "AL", "latitude": 34.347018, "longitude": -87.715431}, {"city": "Piedmont", "state": "AL", "latitude": 33.838946, "longitude": -85.645997}, {"city": "Pike Road", "state": "AL", "latitude": 32.335705, "longitude": -86.09589}, {"city": "Pinckard", "state": "AL", "latitude": 31.311389, "longitude": -85.553056}, {"city": "Pine Apple", "state": "AL", "latitude": 31.926522, "longitude": -87.004667}, {"city": "Pine Hill", "state": "AL", "latitude": 31.973546, "longitude": -87.577086}, {"city": "Pine Level", "state": "AL", "latitude": 32.067778, "longitude": -86.059722}, {"city": "Pinson", "state": "AL", "latitude": 33.708131, "longitude": -86.656542}, {"city": "Pisgah", "state": "AL", "latitude": 34.688601, "longitude": -85.803044}, {"city": "Pittsview", "state": "AL", "latitude": 32.173346, "longitude": -85.131248}, {"city": "Plantersville", "state": "AL", "latitude": 32.617608, "longitude": -86.947531}, {"city": "Pleasant Grove", "state": "AL", "latitude": 33.488336, "longitude": -86.976586}, {"city": "Point Clear", "state": "AL", "latitude": 30.473889, "longitude": -87.919167}, {"city": "Prattville", "state": "AL", "latitude": 32.478695, "longitude": -86.42997}, {"city": "Princeton", "state": "AL", "latitude": 34.840217, "longitude": -86.250068}, {"city": "Quinton", "state": "AL", "latitude": 33.656065, "longitude": -87.10066}, {"city": "Ragland", "state": "AL", "latitude": 33.736677, "longitude": -86.1619}, {"city": "Rainsville", "state": "AL", "latitude": 34.498884, "longitude": -85.844605}, {"city": "Ralph", "state": "AL", "latitude": 33.062868, "longitude": -87.744984}, {"city": "Ramer", "state": "AL", "latitude": 32.067745, "longitude": -86.246329}, {"city": "Ranburne", "state": "AL", "latitude": 33.561627, "longitude": -85.378604}, {"city": "Randolph", "state": "AL", "latitude": 32.888834, "longitude": -86.90701}, {"city": "Range", "state": "AL", "latitude": 31.30169, "longitude": -87.319739}, {"city": "Red Bay", "state": "AL", "latitude": 34.451259, "longitude": -88.112914}, {"city": "Red Level", "state": "AL", "latitude": 31.439931, "longitude": -86.61209}, {"city": "Reform", "state": "AL", "latitude": 33.395945, "longitude": -88.020277}, {"city": "Remlap", "state": "AL", "latitude": 33.846204, "longitude": -86.641662}, {"city": "Repton", "state": "AL", "latitude": 31.425569, "longitude": -87.172039}, {"city": "River Falls", "state": "AL", "latitude": 31.352778, "longitude": -86.539167}, {"city": "Riverside", "state": "AL", "latitude": 33.608832, "longitude": -86.198341}, {"city": "Roanoke", "state": "AL", "latitude": 33.156443, "longitude": -85.357854}, {"city": "Robertsdale", "state": "AL", "latitude": 30.561608, "longitude": -87.637268}, {"city": "Rockford", "state": "AL", "latitude": 32.877957, "longitude": -86.240006}, {"city": "Rogersville", "state": "AL", "latitude": 34.849544, "longitude": -87.323671}, {"city": "Russellville", "state": "AL", "latitude": 34.506568, "longitude": -87.725726}, {"city": "Rutledge", "state": "AL", "latitude": 31.755867, "longitude": -86.348464}, {"city": "Ryland", "state": "AL", "latitude": 34.769722, "longitude": -86.480833}, {"city": "Safford", "state": "AL", "latitude": 32.300242, "longitude": -87.369345}, {"city": "Saginaw", "state": "AL", "latitude": 33.216111, "longitude": -86.791944}, {"city": "Saint Elmo", "state": "AL", "latitude": 30.503333, "longitude": -88.254167}, {"city": "Saint Stephens", "state": "AL", "latitude": 31.533028, "longitude": -88.052094}, {"city": "Salem", "state": "AL", "latitude": 32.621157, "longitude": -85.183966}, {"city": "Samantha", "state": "AL", "latitude": 33.422222, "longitude": -87.605278}, {"city": "Samson", "state": "AL", "latitude": 31.104918, "longitude": -86.067416}, {"city": "Saraland", "state": "AL", "latitude": 30.833197, "longitude": -88.093387}, {"city": "Sardis", "state": "AL", "latitude": 32.284358, "longitude": -86.991959}, {"city": "Satsuma", "state": "AL", "latitude": 30.851628, "longitude": -88.053312}, {"city": "Sawyerville", "state": "AL", "latitude": 32.757796, "longitude": -87.740201}, {"city": "Sayre", "state": "AL", "latitude": 33.712222, "longitude": -86.974444}, {"city": "Scottsboro", "state": "AL", "latitude": 34.67227, "longitude": -86.051336}, {"city": "Seale", "state": "AL", "latitude": 32.305339, "longitude": -85.167733}, {"city": "Section", "state": "AL", "latitude": 34.543275, "longitude": -85.994002}, {"city": "Selma", "state": "AL", "latitude": 32.419719, "longitude": -87.024527}, {"city": "Seminole", "state": "AL", "latitude": 30.504806, "longitude": -87.465938}, {"city": "Semmes", "state": "AL", "latitude": 30.754408, "longitude": -88.266705}, {"city": "Shannon", "state": "AL", "latitude": 33.405278, "longitude": -86.871944}, {"city": "Sheffield", "state": "AL", "latitude": 34.757829, "longitude": -87.697057}, {"city": "Shelby", "state": "AL", "latitude": 33.078483, "longitude": -86.553606}, {"city": "Shorter", "state": "AL", "latitude": 32.383585, "longitude": -85.91616}, {"city": "Shorterville", "state": "AL", "latitude": 31.625627, "longitude": -85.14584}, {"city": "Silas", "state": "AL", "latitude": 31.766754, "longitude": -88.309149}, {"city": "Siluria", "state": "AL", "latitude": 33.244167, "longitude": -86.816389}, {"city": "Silverhill", "state": "AL", "latitude": 30.522237, "longitude": -87.745676}, {"city": "Sipsey", "state": "AL", "latitude": 33.824722, "longitude": -87.086111}, {"city": "Skipperville", "state": "AL", "latitude": 31.551588, "longitude": -85.549578}, {"city": "Slocomb", "state": "AL", "latitude": 31.095558, "longitude": -85.582954}, {"city": "Smiths Station", "state": "AL", "latitude": 32.520072, "longitude": -85.100027}, {"city": "Somerville", "state": "AL", "latitude": 34.499548, "longitude": -86.800931}, {"city": "Spanish Fort", "state": "AL", "latitude": 30.695852, "longitude": -87.88668}, {"city": "Spring Garden", "state": "AL", "latitude": 33.972778, "longitude": -85.553889}, {"city": "Springville", "state": "AL", "latitude": 33.738647, "longitude": -86.439407}, {"city": "Spruce Pine", "state": "AL", "latitude": 34.384796, "longitude": -87.712149}, {"city": "Stanton", "state": "AL", "latitude": 32.709631, "longitude": -86.886848}, {"city": "Stapleton", "state": "AL", "latitude": 30.7425, "longitude": -87.793333}, {"city": "Steele", "state": "AL", "latitude": 33.941679, "longitude": -86.228929}, {"city": "Sterrett", "state": "AL", "latitude": 33.446103, "longitude": -86.491732}, {"city": "Stevenson", "state": "AL", "latitude": 34.876885, "longitude": -85.850803}, {"city": "Stockton", "state": "AL", "latitude": 31.01293, "longitude": -87.863323}, {"city": "Sulligent", "state": "AL", "latitude": 33.8549, "longitude": -88.150774}, {"city": "Sumiton", "state": "AL", "latitude": 33.768005, "longitude": -87.044545}, {"city": "Summerdale", "state": "AL", "latitude": 30.475225, "longitude": -87.699183}, {"city": "Sunflower", "state": "AL", "latitude": 31.382222, "longitude": -88.008333}, {"city": "Sweet Water", "state": "AL", "latitude": 32.077272, "longitude": -87.922755}, {"city": "Sycamore", "state": "AL", "latitude": 33.251111, "longitude": -86.2025}, {"city": "Sylacauga", "state": "AL", "latitude": 33.171675, "longitude": -86.271257}, {"city": "Sylvania", "state": "AL", "latitude": 34.558962, "longitude": -85.792128}, {"city": "Talladega", "state": "AL", "latitude": 33.435445, "longitude": -86.113352}, {"city": "Tallassee", "state": "AL", "latitude": 32.550997, "longitude": -85.89781}, {"city": "Tanner", "state": "AL", "latitude": 34.713037, "longitude": -86.989152}, {"city": "Theodore", "state": "AL", "latitude": 30.544374, "longitude": -88.180748}, {"city": "Thomaston", "state": "AL", "latitude": 32.253776, "longitude": -87.597438}, {"city": "Thomasville", "state": "AL", "latitude": 31.906728, "longitude": -87.759842}, {"city": "Thorsby", "state": "AL", "latitude": 32.923755, "longitude": -86.746724}, {"city": "Tibbie", "state": "AL", "latitude": 31.373742, "longitude": -88.266828}, {"city": "Titus", "state": "AL", "latitude": 32.690019, "longitude": -86.239334}, {"city": "Toney", "state": "AL", "latitude": 34.911644, "longitude": -86.699951}, {"city": "Town Creek", "state": "AL", "latitude": 34.649138, "longitude": -87.426195}, {"city": "Townley", "state": "AL", "latitude": 33.84702, "longitude": -87.437248}, {"city": "Toxey", "state": "AL", "latitude": 31.93153, "longitude": -88.31794}, {"city": "Trafford", "state": "AL", "latitude": 33.819038, "longitude": -86.743414}, {"city": "Trenton", "state": "AL", "latitude": 34.740065, "longitude": -86.291264}, {"city": "Trinity", "state": "AL", "latitude": 34.591771, "longitude": -87.09127}, {"city": "Troy", "state": "AL", "latitude": 31.7567, "longitude": -85.9993}, {"city": "Trussville", "state": "AL", "latitude": 33.633932, "longitude": -86.598068}, {"city": "Tuscaloosa", "state": "AL", "latitude": 33.196891, "longitude": -87.562666}, {"city": "Tuscumbia", "state": "AL", "latitude": 34.687432, "longitude": -87.683259}, {"city": "Tuskegee", "state": "AL", "latitude": 32.431623, "longitude": -85.68606}, {"city": "Tuskegee Institute", "state": "AL", "latitude": 32.430278, "longitude": -85.705278}, {"city": "Tyler", "state": "AL", "latitude": 32.281924, "longitude": -86.859867}, {"city": "Union Grove", "state": "AL", "latitude": 34.409345, "longitude": -86.462793}, {"city": "Union Springs", "state": "AL", "latitude": 32.166252, "longitude": -85.678746}, {"city": "Uniontown", "state": "AL", "latitude": 32.446966, "longitude": -87.493398}, {"city": "Uriah", "state": "AL", "latitude": 31.313467, "longitude": -87.570518}, {"city": "Valhermoso Springs", "state": "AL", "latitude": 34.538145, "longitude": -86.678}, {"city": "Valley", "state": "AL", "latitude": 32.811349, "longitude": -85.174911}, {"city": "Valley", "state": "AL", "latitude": 32.820833, "longitude": -85.170833}, {"city": "Valley Head", "state": "AL", "latitude": 34.5697, "longitude": -85.627208}, {"city": "Vance", "state": "AL", "latitude": 33.17498, "longitude": -87.257362}, {"city": "Vandiver", "state": "AL", "latitude": 33.480704, "longitude": -86.501278}, {"city": "Verbena", "state": "AL", "latitude": 32.759565, "longitude": -86.543753}, {"city": "Vernon", "state": "AL", "latitude": 33.761285, "longitude": -88.097919}, {"city": "Vina", "state": "AL", "latitude": 34.37116, "longitude": -88.077422}, {"city": "Vincent", "state": "AL", "latitude": 33.401049, "longitude": -86.399425}, {"city": "Vinegar Bend", "state": "AL", "latitude": 31.25841, "longitude": -88.386466}, {"city": "Vinemont", "state": "AL", "latitude": 34.262121, "longitude": -86.912512}, {"city": "Vredenburgh", "state": "AL", "latitude": 31.73443, "longitude": -87.416184}, {"city": "Wadley", "state": "AL", "latitude": 33.149192, "longitude": -85.551344}, {"city": "Wagarville", "state": "AL", "latitude": 31.410205, "longitude": -88.070519}, {"city": "Walnut Grove", "state": "AL", "latitude": 34.065556, "longitude": -86.306389}, {"city": "Ward", "state": "AL", "latitude": 32.334063, "longitude": -88.297114}, {"city": "Warrior", "state": "AL", "latitude": 33.852862, "longitude": -86.819849}, {"city": "Waterloo", "state": "AL", "latitude": 34.93568, "longitude": -87.962412}, {"city": "Watson", "state": "AL", "latitude": 33.633611, "longitude": -86.879444}, {"city": "Wattsville", "state": "AL", "latitude": 33.681389, "longitude": -86.279722}, {"city": "Waverly", "state": "AL", "latitude": 32.763167, "longitude": -85.514372}, {"city": "Weaver", "state": "AL", "latitude": 33.756286, "longitude": -85.810666}, {"city": "Webb", "state": "AL", "latitude": 31.265618, "longitude": -85.254385}, {"city": "Wedowee", "state": "AL", "latitude": 33.301854, "longitude": -85.473737}, {"city": "Wellington", "state": "AL", "latitude": 33.863843, "longitude": -85.915325}, {"city": "Weogufka", "state": "AL", "latitude": 33.02381, "longitude": -86.304203}, {"city": "West Blocton", "state": "AL", "latitude": 33.142431, "longitude": -87.13694}, {"city": "West Greene", "state": "AL", "latitude": 32.923611, "longitude": -88.085278}, {"city": "Westover", "state": "AL", "latitude": 33.349444, "longitude": -86.535833}, {"city": "Wetumpka", "state": "AL", "latitude": 32.54509, "longitude": -86.188039}, {"city": "Whatley", "state": "AL", "latitude": 31.639453, "longitude": -87.656502}, {"city": "Wilmer", "state": "AL", "latitude": 30.813745, "longitude": -88.333196}, {"city": "Wilsonville", "state": "AL", "latitude": 33.229255, "longitude": -86.529894}, {"city": "Wilton", "state": "AL", "latitude": 33.078611, "longitude": -86.881667}, {"city": "Winfield", "state": "AL", "latitude": 33.930256, "longitude": -87.79716}, {"city": "Wing", "state": "AL", "latitude": 31.148127, "longitude": -86.56119}, {"city": "Woodland", "state": "AL", "latitude": 33.355453, "longitude": -85.353768}, {"city": "Woodstock", "state": "AL", "latitude": 33.169808, "longitude": -87.163469}, {"city": "Woodville", "state": "AL", "latitude": 34.668927, "longitude": -86.22961}, {"city": "York", "state": "AL", "latitude": 32.472765, "longitude": -88.268304}, {"city": "Adona", "state": "AR", "latitude": 35.046956, "longitude": -92.903325}, {"city": "Alexander", "state": "AR", "latitude": 34.631266, "longitude": -92.472673}, {"city": "Alicia", "state": "AR", "latitude": 35.942327, "longitude": -91.081003}, {"city": "Alix", "state": "AR", "latitude": 35.430767, "longitude": -93.726416}, {"city": "Alleene", "state": "AR", "latitude": 33.77, "longitude": -94.260278}, {"city": "Alma", "state": "AR", "latitude": 35.500043, "longitude": -94.207337}, {"city": "Almyra", "state": "AR", "latitude": 34.41459, "longitude": -91.430992}, {"city": "Alpena", "state": "AR", "latitude": 36.299768, "longitude": -93.2792}, {"city": "Alpine", "state": "AR", "latitude": 34.228889, "longitude": -93.378889}, {"city": "Altheimer", "state": "AR", "latitude": 34.306168, "longitude": -91.828916}, {"city": "Altus", "state": "AR", "latitude": 35.404873, "longitude": -93.811494}, {"city": "Amagon", "state": "AR", "latitude": 35.561559, "longitude": -91.079636}, {"city": "Amity", "state": "AR", "latitude": 34.259362, "longitude": -93.420551}, {"city": "Antoine", "state": "AR", "latitude": 34.028296, "longitude": -93.437169}, {"city": "Arkadelphia", "state": "AR", "latitude": 34.11525, "longitude": -93.068989}, {"city": "Arkansas City", "state": "AR", "latitude": 33.614328, "longitude": -91.232529}, {"city": "Armorel", "state": "AR", "latitude": 35.942843, "longitude": -89.758118}, {"city": "Ash Flat", "state": "AR", "latitude": 36.219732, "longitude": -91.610746}, {"city": "Ashdown", "state": "AR", "latitude": 33.678711, "longitude": -94.135102}, {"city": "Atkins", "state": "AR", "latitude": 35.244948, "longitude": -92.950696}, {"city": "Aubrey", "state": "AR", "latitude": 34.702727, "longitude": -90.911331}, {"city": "Augusta", "state": "AR", "latitude": 35.278806, "longitude": -91.352653}, {"city": "Austin", "state": "AR", "latitude": 35.028369, "longitude": -91.959398}, {"city": "Avoca", "state": "AR", "latitude": 36.401944, "longitude": -94.070556}, {"city": "Bald Knob", "state": "AR", "latitude": 35.311331, "longitude": -91.550197}, {"city": "Banks", "state": "AR", "latitude": 33.549665, "longitude": -92.260386}, {"city": "Barling", "state": "AR", "latitude": 35.332963, "longitude": -94.308226}, {"city": "Barton", "state": "AR", "latitude": 34.5475, "longitude": -90.768056}, {"city": "Bassett", "state": "AR", "latitude": 35.513808, "longitude": -90.192155}, {"city": "Batesville", "state": "AR", "latitude": 35.782614, "longitude": -91.63519}, {"city": "Bauxite", "state": "AR", "latitude": 34.545537, "longitude": -92.360531}, {"city": "Bay", "state": "AR", "latitude": 35.74559, "longitude": -90.550658}, {"city": "Bearden", "state": "AR", "latitude": 33.729797, "longitude": -92.61802}, {"city": "Beaver", "state": "AR", "latitude": 36.473611, "longitude": -93.767222}, {"city": "Bee Branch", "state": "AR", "latitude": 35.423367, "longitude": -92.408523}, {"city": "Beebe", "state": "AR", "latitude": 35.093743, "longitude": -91.907449}, {"city": "Beech Grove", "state": "AR", "latitude": 36.183172, "longitude": -90.618084}, {"city": "Beedeville", "state": "AR", "latitude": 35.420267, "longitude": -91.106371}, {"city": "Beirne", "state": "AR", "latitude": 33.888611, "longitude": -93.203889}, {"city": "Bella Vista", "state": "AR", "latitude": 36.465086, "longitude": -94.251969}, {"city": "Belleville", "state": "AR", "latitude": 35.103762, "longitude": -93.451817}, {"city": "Ben Lomond", "state": "AR", "latitude": 33.835278, "longitude": -94.118333}, {"city": "Benton", "state": "AR", "latitude": 34.580087, "longitude": -92.595241}, {"city": "Bentonville", "state": "AR", "latitude": 36.357703, "longitude": -94.22242}, {"city": "Bergman", "state": "AR", "latitude": 36.316111, "longitude": -93.0075}, {"city": "Berryville", "state": "AR", "latitude": 36.351908, "longitude": -93.558725}, {"city": "Bexar", "state": "AR", "latitude": 36.306103, "longitude": -91.985998}, {"city": "Big Flat", "state": "AR", "latitude": 36.006824, "longitude": -92.391681}, {"city": "Bigelow", "state": "AR", "latitude": 34.984659, "longitude": -92.630842}, {"city": "Biggers", "state": "AR", "latitude": 36.342978, "longitude": -90.784467}, {"city": "Biscoe", "state": "AR", "latitude": 34.833706, "longitude": -91.490028}, {"city": "Bismarck", "state": "AR", "latitude": 34.311033, "longitude": -93.187236}, {"city": "Black Oak", "state": "AR", "latitude": 35.835851, "longitude": -90.354227}, {"city": "Black Rock", "state": "AR", "latitude": 36.114874, "longitude": -91.117629}, {"city": "Blevins", "state": "AR", "latitude": 33.875468, "longitude": -93.536035}, {"city": "Blue Mountain", "state": "AR", "latitude": 35.130386, "longitude": -93.716797}, {"city": "Bluff City", "state": "AR", "latitude": 33.698191, "longitude": -93.186811}, {"city": "Bluffton", "state": "AR", "latitude": 34.901635, "longitude": -93.591946}, {"city": "Blytheville", "state": "AR", "latitude": 35.934482, "longitude": -89.922497}, {"city": "Board Camp", "state": "AR", "latitude": 34.537778, "longitude": -94.095278}, {"city": "Boles", "state": "AR", "latitude": 34.765363, "longitude": -94.062864}, {"city": "Bonnerdale", "state": "AR", "latitude": 34.349751, "longitude": -93.319415}, {"city": "Bono", "state": "AR", "latitude": 35.908592, "longitude": -90.784753}, {"city": "Booneville", "state": "AR", "latitude": 35.136385, "longitude": -93.927433}, {"city": "Bradford", "state": "AR", "latitude": 35.427655, "longitude": -91.518973}, {"city": "Bradley", "state": "AR", "latitude": 33.106963, "longitude": -93.627496}, {"city": "Branch", "state": "AR", "latitude": 35.297055, "longitude": -93.94537}, {"city": "Brickeys", "state": "AR", "latitude": 34.854814, "longitude": -90.537738}, {"city": "Briggsville", "state": "AR", "latitude": 34.916065, "longitude": -93.515748}, {"city": "Brinkley", "state": "AR", "latitude": 34.878124, "longitude": -91.188596}, {"city": "Brockwell", "state": "AR", "latitude": 36.135755, "longitude": -91.951308}, {"city": "Brookland", "state": "AR", "latitude": 35.91647, "longitude": -90.576228}, {"city": "Bryant", "state": "AR", "latitude": 34.606786, "longitude": -92.492015}, {"city": "Buckner", "state": "AR", "latitude": 33.375323, "longitude": -93.446998}, {"city": "Bull Shoals", "state": "AR", "latitude": 36.370958, "longitude": -92.593765}, {"city": "Burdette", "state": "AR", "latitude": 35.814769, "longitude": -89.942312}, {"city": "Cabot", "state": "AR", "latitude": 34.945724, "longitude": -92.031771}, {"city": "Caddo Gap", "state": "AR", "latitude": 34.397579, "longitude": -93.586376}, {"city": "Caldwell", "state": "AR", "latitude": 35.074444, "longitude": -90.816667}, {"city": "Cale", "state": "AR", "latitude": 33.616403, "longitude": -93.26497}, {"city": "Calico Rock", "state": "AR", "latitude": 36.144771, "longitude": -92.145494}, {"city": "Calion", "state": "AR", "latitude": 33.328889, "longitude": -92.538333}, {"city": "Camden", "state": "AR", "latitude": 33.575866, "longitude": -92.833386}, {"city": "Camp", "state": "AR", "latitude": 36.402531, "longitude": -91.726166}, {"city": "Canehill", "state": "AR", "latitude": 35.910992, "longitude": -94.3862}, {"city": "Caraway", "state": "AR", "latitude": 35.758951, "longitude": -90.335797}, {"city": "Carlisle", "state": "AR", "latitude": 34.793291, "longitude": -91.745929}, {"city": "Carthage", "state": "AR", "latitude": 34.063625, "longitude": -92.62623}, {"city": "Casa", "state": "AR", "latitude": 35.032168, "longitude": -93.047005}, {"city": "Cash", "state": "AR", "latitude": 35.830145, "longitude": -90.941007}, {"city": "Casscoe", "state": "AR", "latitude": 34.473625, "longitude": -91.324798}, {"city": "Cave City", "state": "AR", "latitude": 35.951684, "longitude": -91.544432}, {"city": "Cave Springs", "state": "AR", "latitude": 36.266771, "longitude": -94.207836}, {"city": "Cecil", "state": "AR", "latitude": 35.434176, "longitude": -93.942932}, {"city": "Cedarville", "state": "AR", "latitude": 35.590231, "longitude": -94.344618}, {"city": "Center Ridge", "state": "AR", "latitude": 35.398063, "longitude": -92.558167}, {"city": "Centerton", "state": "AR", "latitude": 36.366993, "longitude": -94.30891}, {"city": "Centerville", "state": "AR", "latitude": 35.112778, "longitude": -93.168611}, {"city": "Charleston", "state": "AR", "latitude": 35.311502, "longitude": -94.03368}, {"city": "Charlotte", "state": "AR", "latitude": 35.833393, "longitude": -91.396217}, {"city": "Cherokee Village", "state": "AR", "latitude": 36.297778, "longitude": -91.515833}, {"city": "Cherry Valley", "state": "AR", "latitude": 35.399122, "longitude": -90.761329}, {"city": "Chester", "state": "AR", "latitude": 35.689776, "longitude": -94.202026}, {"city": "Chidester", "state": "AR", "latitude": 33.700148, "longitude": -93.018716}, {"city": "Choctaw", "state": "AR", "latitude": 35.523528, "longitude": -92.426412}, {"city": "Clarendon", "state": "AR", "latitude": 34.660138, "longitude": -91.256426}, {"city": "Clarkedale", "state": "AR", "latitude": 35.309167, "longitude": -90.236111}, {"city": "Clarkridge", "state": "AR", "latitude": 36.443311, "longitude": -92.35159}, {"city": "Clarksville", "state": "AR", "latitude": 35.490763, "longitude": -93.491056}, {"city": "Cleveland", "state": "AR", "latitude": 35.358328, "longitude": -92.712821}, {"city": "Clinton", "state": "AR", "latitude": 35.604537, "longitude": -92.475825}, {"city": "Coal Hill", "state": "AR", "latitude": 35.437117, "longitude": -93.67203}, {"city": "College Station", "state": "AR", "latitude": 34.708056, "longitude": -92.221111}, {"city": "Colt", "state": "AR", "latitude": 35.096062, "longitude": -90.787204}, {"city": "Columbus", "state": "AR", "latitude": 33.745108, "longitude": -93.85588}, {"city": "Combs", "state": "AR", "latitude": 35.848297, "longitude": -93.825218}, {"city": "Compton", "state": "AR", "latitude": 36.097941, "longitude": -93.309903}, {"city": "Concord", "state": "AR", "latitude": 35.641355, "longitude": -91.833339}, {"city": "Conway", "state": "AR", "latitude": 35.084199, "longitude": -92.423574}, {"city": "Cord", "state": "AR", "latitude": 35.81844, "longitude": -91.337455}, {"city": "Corning", "state": "AR", "latitude": 36.415532, "longitude": -90.58702}, {"city": "Cotter", "state": "AR", "latitude": 36.280378, "longitude": -92.532787}, {"city": "Cotton Plant", "state": "AR", "latitude": 35.017827, "longitude": -91.229043}, {"city": "Cove", "state": "AR", "latitude": 34.419159, "longitude": -94.39234}, {"city": "Coy", "state": "AR", "latitude": 34.538611, "longitude": -91.873889}, {"city": "Crawfordsville", "state": "AR", "latitude": 35.211873, "longitude": -90.335107}, {"city": "Crocketts Bluff", "state": "AR", "latitude": 34.425272, "longitude": -91.232079}, {"city": "Crossett", "state": "AR", "latitude": 33.152369, "longitude": -91.959152}, {"city": "Crumrod", "state": "AR", "latitude": 34.216167, "longitude": -90.949535}, {"city": "Curtis", "state": "AR", "latitude": 33.997778, "longitude": -93.105556}, {"city": "Cushman", "state": "AR", "latitude": 35.869663, "longitude": -91.776455}, {"city": "Damascus", "state": "AR", "latitude": 35.291042, "longitude": -92.432952}, {"city": "Danville", "state": "AR", "latitude": 35.049541, "longitude": -93.392933}, {"city": "Dardanelle", "state": "AR", "latitude": 35.195507, "longitude": -93.187316}, {"city": "Datto", "state": "AR", "latitude": 36.389685, "longitude": -90.723117}, {"city": "De Queen", "state": "AR", "latitude": 34.044206, "longitude": -94.338559}, {"city": "De Valls Bluff", "state": "AR", "latitude": 34.744704, "longitude": -91.498218}, {"city": "De Witt", "state": "AR", "latitude": 34.285312, "longitude": -91.333627}, {"city": "Decatur", "state": "AR", "latitude": 36.334749, "longitude": -94.453411}, {"city": "Deer", "state": "AR", "latitude": 35.852982, "longitude": -93.317388}, {"city": "Delaplaine", "state": "AR", "latitude": 36.199485, "longitude": -90.734482}, {"city": "Delaware", "state": "AR", "latitude": 35.278005, "longitude": -93.346152}, {"city": "Delight", "state": "AR", "latitude": 34.023772, "longitude": -93.524666}, {"city": "Dell", "state": "AR", "latitude": 35.850118, "longitude": -90.035449}, {"city": "Dennard", "state": "AR", "latitude": 35.725236, "longitude": -92.557456}, {"city": "Dermott", "state": "AR", "latitude": 33.524054, "longitude": -91.439391}, {"city": "Des Arc", "state": "AR", "latitude": 34.97507, "longitude": -91.511342}, {"city": "Desha", "state": "AR", "latitude": 35.731524, "longitude": -91.678287}, {"city": "Diamond City", "state": "AR", "latitude": 36.464444, "longitude": -92.92}, {"city": "Diaz", "state": "AR", "latitude": 35.638333, "longitude": -91.265}, {"city": "Dierks", "state": "AR", "latitude": 34.13232, "longitude": -94.015243}, {"city": "Doddridge", "state": "AR", "latitude": 33.105448, "longitude": -93.954307}, {"city": "Dolph", "state": "AR", "latitude": 36.222878, "longitude": -92.11766}, {"city": "Donaldson", "state": "AR", "latitude": 34.221221, "longitude": -92.909384}, {"city": "Dover", "state": "AR", "latitude": 35.407356, "longitude": -93.135526}, {"city": "Drasco", "state": "AR", "latitude": 35.661606, "longitude": -91.939818}, {"city": "Driver", "state": "AR", "latitude": 35.559714, "longitude": -89.960526}, {"city": "Dumas", "state": "AR", "latitude": 33.892102, "longitude": -91.486056}, {"city": "Dyer", "state": "AR", "latitude": 35.492222, "longitude": -94.1375}, {"city": "Dyess", "state": "AR", "latitude": 35.595394, "longitude": -90.215716}, {"city": "Earle", "state": "AR", "latitude": 35.27989, "longitude": -90.450261}, {"city": "Edgemont", "state": "AR", "latitude": 35.623006, "longitude": -92.199471}, {"city": "Edmondson", "state": "AR", "latitude": 35.022309, "longitude": -90.328672}, {"city": "Egypt", "state": "AR", "latitude": 35.868056, "longitude": -90.945556}, {"city": "El Dorado", "state": "AR", "latitude": 33.20735, "longitude": -92.662856}, {"city": "El Paso", "state": "AR", "latitude": 35.114176, "longitude": -92.090076}, {"city": "Elaine", "state": "AR", "latitude": 34.308668, "longitude": -90.873485}, {"city": "Elizabeth", "state": "AR", "latitude": 36.323776, "longitude": -92.093366}, {"city": "Elkins", "state": "AR", "latitude": 36.017719, "longitude": -94.007323}, {"city": "Elm Springs", "state": "AR", "latitude": 36.206111, "longitude": -94.234167}, {"city": "Emerson", "state": "AR", "latitude": 33.089054, "longitude": -93.198699}, {"city": "Emmet", "state": "AR", "latitude": 33.692896, "longitude": -93.423242}, {"city": "England", "state": "AR", "latitude": 34.557458, "longitude": -91.948422}, {"city": "Enola", "state": "AR", "latitude": 35.208705, "longitude": -92.212328}, {"city": "Ethel", "state": "AR", "latitude": 34.243525, "longitude": -91.139839}, {"city": "Etowah", "state": "AR", "latitude": 35.714707, "longitude": -90.218172}, {"city": "Eudora", "state": "AR", "latitude": 33.12135, "longitude": -91.271552}, {"city": "Eureka Springs", "state": "AR", "latitude": 36.485278, "longitude": -93.731944}, {"city": "Evansville", "state": "AR", "latitude": 35.819345, "longitude": -94.478936}, {"city": "Evening Shade", "state": "AR", "latitude": 36.085532, "longitude": -91.598014}, {"city": "Everton", "state": "AR", "latitude": 36.153366, "longitude": -92.914989}, {"city": "Fairfield Bay", "state": "AR", "latitude": 35.656111, "longitude": -92.319167}, {"city": "Farmington", "state": "AR", "latitude": 36.043635, "longitude": -94.253871}, {"city": "Fayetteville", "state": "AR", "latitude": 36.052045, "longitude": -94.153395}, {"city": "Fifty Six", "state": "AR", "latitude": 35.991958, "longitude": -92.218169}, {"city": "Fisher", "state": "AR", "latitude": 35.513956, "longitude": -90.955001}, {"city": "Flippin", "state": "AR", "latitude": 36.268219, "longitude": -92.577995}, {"city": "Floral", "state": "AR", "latitude": 35.602337, "longitude": -91.734101}, {"city": "Fordyce", "state": "AR", "latitude": 33.817648, "longitude": -92.422475}, {"city": "Foreman", "state": "AR", "latitude": 33.71759, "longitude": -94.388108}, {"city": "Forrest City", "state": "AR", "latitude": 35.009129, "longitude": -90.788572}, {"city": "Fort Smith", "state": "AR", "latitude": 35.365272, "longitude": -94.411035}, {"city": "Fouke", "state": "AR", "latitude": 33.302476, "longitude": -93.900953}, {"city": "Fountain Hill", "state": "AR", "latitude": 33.342951, "longitude": -91.835627}, {"city": "Fox", "state": "AR", "latitude": 35.768208, "longitude": -92.304266}, {"city": "Franklin", "state": "AR", "latitude": 36.129093, "longitude": -91.809592}, {"city": "Frenchmans Bayou", "state": "AR", "latitude": 35.478419, "longitude": -90.055933}, {"city": "Friendship", "state": "AR", "latitude": 34.241225, "longitude": -92.980393}, {"city": "Fulton", "state": "AR", "latitude": 33.629876, "longitude": -93.808562}, {"city": "Gamaliel", "state": "AR", "latitude": 36.461794, "longitude": -92.228447}, {"city": "Garfield", "state": "AR", "latitude": 36.428817, "longitude": -93.951197}, {"city": "Garland City", "state": "AR", "latitude": 33.335161, "longitude": -93.731624}, {"city": "Garner", "state": "AR", "latitude": 35.130305, "longitude": -91.742884}, {"city": "Gassville", "state": "AR", "latitude": 36.317525, "longitude": -92.473637}, {"city": "Gateway", "state": "AR", "latitude": 36.485751, "longitude": -93.935016}, {"city": "Genoa", "state": "AR", "latitude": 33.383611, "longitude": -93.909444}, {"city": "Gentry", "state": "AR", "latitude": 36.26516, "longitude": -94.475131}, {"city": "Gepp", "state": "AR", "latitude": 36.436443, "longitude": -92.099507}, {"city": "Gilbert", "state": "AR", "latitude": 35.987778, "longitude": -92.716111}, {"city": "Gillett", "state": "AR", "latitude": 34.121838, "longitude": -91.380048}, {"city": "Gillham", "state": "AR", "latitude": 34.157003, "longitude": -94.316497}, {"city": "Gilmore", "state": "AR", "latitude": 35.386408, "longitude": -90.264664}, {"city": "Glencoe", "state": "AR", "latitude": 36.288962, "longitude": -91.769483}, {"city": "Glenwood", "state": "AR", "latitude": 34.319207, "longitude": -93.555881}, {"city": "Goodwin", "state": "AR", "latitude": 34.959149, "longitude": -90.983518}, {"city": "Goshen", "state": "AR", "latitude": 36.107523, "longitude": -93.987262}, {"city": "Gosnell", "state": "AR", "latitude": 35.9272, "longitude": -89.9188}, {"city": "Gould", "state": "AR", "latitude": 34.034503, "longitude": -91.576798}, {"city": "Grady", "state": "AR", "latitude": 34.030484, "longitude": -91.67082}, {"city": "Grannis", "state": "AR", "latitude": 34.237021, "longitude": -94.3255}, {"city": "Grapevine", "state": "AR", "latitude": 34.130893, "longitude": -92.310944}, {"city": "Gravelly", "state": "AR", "latitude": 34.888123, "longitude": -93.680249}, {"city": "Gravette", "state": "AR", "latitude": 36.415513, "longitude": -94.477862}, {"city": "Green Forest", "state": "AR", "latitude": 36.322408, "longitude": -93.405875}, {"city": "Greenbrier", "state": "AR", "latitude": 35.229547, "longitude": -92.357792}, {"city": "Greenland", "state": "AR", "latitude": 35.994167, "longitude": -94.175}, {"city": "Greenway", "state": "AR", "latitude": 36.334766, "longitude": -90.225257}, {"city": "Greenwood", "state": "AR", "latitude": 35.195476, "longitude": -94.253027}, {"city": "Gregory", "state": "AR", "latitude": 35.155278, "longitude": -91.343056}, {"city": "Griffithville", "state": "AR", "latitude": 35.114383, "longitude": -91.624234}, {"city": "Grubbs", "state": "AR", "latitude": 35.649722, "longitude": -91.073889}, {"city": "Guion", "state": "AR", "latitude": 35.960135, "longitude": -91.934287}, {"city": "Gurdon", "state": "AR", "latitude": 33.912493, "longitude": -93.141691}, {"city": "Guy", "state": "AR", "latitude": 35.318487, "longitude": -92.331539}, {"city": "Hackett", "state": "AR", "latitude": 35.194476, "longitude": -94.398328}, {"city": "Hagarville", "state": "AR", "latitude": 35.523291, "longitude": -93.344256}, {"city": "Hamburg", "state": "AR", "latitude": 33.2058, "longitude": -91.802265}, {"city": "Hampton", "state": "AR", "latitude": 33.537613, "longitude": -92.52951}, {"city": "Hardy", "state": "AR", "latitude": 36.322746, "longitude": -91.411027}, {"city": "Harrell", "state": "AR", "latitude": 33.510865, "longitude": -92.391243}, {"city": "Harriet", "state": "AR", "latitude": 35.974187, "longitude": -92.50055}, {"city": "Harrisburg", "state": "AR", "latitude": 35.572222, "longitude": -90.703752}, {"city": "Harrison", "state": "AR", "latitude": 36.241707, "longitude": -93.106162}, {"city": "Hartford", "state": "AR", "latitude": 35.022233, "longitude": -94.381876}, {"city": "Hartman", "state": "AR", "latitude": 35.443583, "longitude": -93.614196}, {"city": "Harvey", "state": "AR", "latitude": 34.867912, "longitude": -93.752538}, {"city": "Hasty", "state": "AR", "latitude": 36.015229, "longitude": -93.045966}, {"city": "Hatfield", "state": "AR", "latitude": 34.487703, "longitude": -94.371397}, {"city": "Hattieville", "state": "AR", "latitude": 35.290713, "longitude": -92.778317}, {"city": "Havana", "state": "AR", "latitude": 35.111845, "longitude": -93.576719}, {"city": "Haynes", "state": "AR", "latitude": 34.883752, "longitude": -90.766621}, {"city": "Hazen", "state": "AR", "latitude": 34.783833, "longitude": -91.576699}, {"city": "Heber Springs", "state": "AR", "latitude": 35.510278, "longitude": -92.039211}, {"city": "Hector", "state": "AR", "latitude": 35.40574, "longitude": -92.965559}, {"city": "Helena", "state": "AR", "latitude": 34.532491, "longitude": -90.629784}, {"city": "Henderson", "state": "AR", "latitude": 36.356829, "longitude": -92.269253}, {"city": "Hensley", "state": "AR", "latitude": 34.591133, "longitude": -92.214019}, {"city": "Hermitage", "state": "AR", "latitude": 33.422207, "longitude": -92.127714}, {"city": "Heth", "state": "AR", "latitude": 35.097335, "longitude": -90.458554}, {"city": "Hickory Plains", "state": "AR", "latitude": 34.978642, "longitude": -91.750844}, {"city": "Hickory Ridge", "state": "AR", "latitude": 35.399457, "longitude": -90.982283}, {"city": "Higden", "state": "AR", "latitude": 35.549812, "longitude": -92.182284}, {"city": "Higginson", "state": "AR", "latitude": 35.188254, "longitude": -91.71828}, {"city": "Hindsville", "state": "AR", "latitude": 36.142206, "longitude": -93.863339}, {"city": "Hiwasse", "state": "AR", "latitude": 36.441589, "longitude": -94.338993}, {"city": "Holly Grove", "state": "AR", "latitude": 34.599294, "longitude": -91.184376}, {"city": "Hope", "state": "AR", "latitude": 33.656645, "longitude": -93.590305}, {"city": "Horatio", "state": "AR", "latitude": 33.939221, "longitude": -94.295942}, {"city": "Horseshoe Bend", "state": "AR", "latitude": 36.202502, "longitude": -91.755334}, {"city": "Hot Springs National Park", "state": "AR", "latitude": 34.501475, "longitude": -93.026024}, {"city": "Hot Springs Village", "state": "AR", "latitude": 34.6411, "longitude": -93.0574}, {"city": "Houston", "state": "AR", "latitude": 35.036209, "longitude": -92.691319}, {"city": "Hoxie", "state": "AR", "latitude": 36.032573, "longitude": -90.971504}, {"city": "Hughes", "state": "AR", "latitude": 34.945416, "longitude": -90.474142}, {"city": "Humnoke", "state": "AR", "latitude": 34.541896, "longitude": -91.756616}, {"city": "Humphrey", "state": "AR", "latitude": 34.403387, "longitude": -91.67896}, {"city": "Hunter", "state": "AR", "latitude": 35.052778, "longitude": -91.126111}, {"city": "Huntington", "state": "AR", "latitude": 35.096267, "longitude": -94.331283}, {"city": "Huntsville", "state": "AR", "latitude": 36.104348, "longitude": -93.727893}, {"city": "Huttig", "state": "AR", "latitude": 33.045888, "longitude": -92.194153}, {"city": "Ida", "state": "AR", "latitude": 35.594326, "longitude": -91.930081}, {"city": "Imboden", "state": "AR", "latitude": 36.19763, "longitude": -91.185442}, {"city": "Ivan", "state": "AR", "latitude": 33.902984, "longitude": -92.439406}, {"city": "Jacksonport", "state": "AR", "latitude": 35.641667, "longitude": -91.309444}, {"city": "Jacksonville", "state": "AR", "latitude": 34.881985, "longitude": -92.130435}, {"city": "Jasper", "state": "AR", "latitude": 36.003798, "longitude": -93.204771}, {"city": "Jefferson", "state": "AR", "latitude": 34.355285, "longitude": -92.148574}, {"city": "Jersey", "state": "AR", "latitude": 33.388914, "longitude": -92.296613}, {"city": "Jerusalem", "state": "AR", "latitude": 35.37975, "longitude": -92.813886}, {"city": "Jessieville", "state": "AR", "latitude": 34.693729, "longitude": -93.196318}, {"city": "Johnson", "state": "AR", "latitude": 36.132778, "longitude": -94.165278}, {"city": "Joiner", "state": "AR", "latitude": 35.505239, "longitude": -90.14779}, {"city": "Jones Mill", "state": "AR", "latitude": 34.453624, "longitude": -92.861975}, {"city": "Jonesboro", "state": "AR", "latitude": 35.833016, "longitude": -90.696526}, {"city": "Judsonia", "state": "AR", "latitude": 35.324954, "longitude": -91.649087}, {"city": "Junction City", "state": "AR", "latitude": 33.043965, "longitude": -92.684254}, {"city": "Keiser", "state": "AR", "latitude": 35.678626, "longitude": -90.096171}, {"city": "Kensett", "state": "AR", "latitude": 35.229939, "longitude": -91.669672}, {"city": "Keo", "state": "AR", "latitude": 34.604072, "longitude": -92.007844}, {"city": "Kingsland", "state": "AR", "latitude": 33.86002, "longitude": -92.301415}, {"city": "Kingston", "state": "AR", "latitude": 36.04845, "longitude": -93.504357}, {"city": "Kirby", "state": "AR", "latitude": 34.255153, "longitude": -93.616716}, {"city": "Knobel", "state": "AR", "latitude": 36.317647, "longitude": -90.599048}, {"city": "Knoxville", "state": "AR", "latitude": 35.374897, "longitude": -93.361797}, {"city": "La Grange", "state": "AR", "latitude": 34.656389, "longitude": -90.732778}, {"city": "Lafe", "state": "AR", "latitude": 36.21547, "longitude": -90.506973}, {"city": "Lake City", "state": "AR", "latitude": 35.81715, "longitude": -90.442327}, {"city": "Lake Village", "state": "AR", "latitude": 33.327408, "longitude": -91.282487}, {"city": "Lakeview", "state": "AR", "latitude": 36.397308, "longitude": -92.504416}, {"city": "Lamar", "state": "AR", "latitude": 35.434868, "longitude": -93.355157}, {"city": "Lambrook", "state": "AR", "latitude": 34.335556, "longitude": -90.9675}, {"city": "Laneburg", "state": "AR", "latitude": 33.685, "longitude": -93.346667}, {"city": "Langley", "state": "AR", "latitude": 34.314035, "longitude": -93.850942}, {"city": "Lavaca", "state": "AR", "latitude": 35.337513, "longitude": -94.165637}, {"city": "Lawson", "state": "AR", "latitude": 33.196667, "longitude": -92.482778}, {"city": "Leachville", "state": "AR", "latitude": 35.933216, "longitude": -90.195488}, {"city": "Lead Hill", "state": "AR", "latitude": 36.430886, "longitude": -92.930194}, {"city": "Leola", "state": "AR", "latitude": 34.185605, "longitude": -92.597865}, {"city": "Lepanto", "state": "AR", "latitude": 35.606909, "longitude": -90.335883}, {"city": "Leslie", "state": "AR", "latitude": 35.82716, "longitude": -92.566293}, {"city": "Letona", "state": "AR", "latitude": 35.361667, "longitude": -91.829167}, {"city": "Lewisville", "state": "AR", "latitude": 33.373603, "longitude": -93.595258}, {"city": "Lexa", "state": "AR", "latitude": 34.672694, "longitude": -90.78532}, {"city": "Light", "state": "AR", "latitude": 36.07, "longitude": -90.747778}, {"city": "Lincoln", "state": "AR", "latitude": 35.956931, "longitude": -94.42724}, {"city": "Little Rock", "state": "AR", "latitude": 34.748342, "longitude": -92.281939}, {"city": "Little Rock Air Force Base", "state": "AR", "latitude": 34.898611, "longitude": -92.144167}, {"city": "Lockesburg", "state": "AR", "latitude": 33.930553, "longitude": -94.127588}, {"city": "Locust Grove", "state": "AR", "latitude": 35.717705, "longitude": -91.741443}, {"city": "London", "state": "AR", "latitude": 35.337017, "longitude": -93.238907}, {"city": "Lonoke", "state": "AR", "latitude": 34.783162, "longitude": -91.921367}, {"city": "Lonsdale", "state": "AR", "latitude": 34.556203, "longitude": -92.834034}, {"city": "Louann", "state": "AR", "latitude": 33.411744, "longitude": -92.782759}, {"city": "Lowell", "state": "AR", "latitude": 36.243318, "longitude": -94.082725}, {"city": "Luxora", "state": "AR", "latitude": 35.760786, "longitude": -89.92204}, {"city": "Lynn", "state": "AR", "latitude": 36.016639, "longitude": -91.254588}, {"city": "Mabelvale", "state": "AR", "latitude": 34.621756, "longitude": -92.384618}, {"city": "Madison", "state": "AR", "latitude": 35.013056, "longitude": -90.7225}, {"city": "Magazine", "state": "AR", "latitude": 35.15873, "longitude": -93.800336}, {"city": "Magness", "state": "AR", "latitude": 35.710062, "longitude": -91.485041}, {"city": "Magnolia", "state": "AR", "latitude": 33.264678, "longitude": -93.239153}, {"city": "Malvern", "state": "AR", "latitude": 34.355715, "longitude": -92.829162}, {"city": "Mammoth Spring", "state": "AR", "latitude": 36.407648, "longitude": -91.575712}, {"city": "Manila", "state": "AR", "latitude": 35.874885, "longitude": -90.180252}, {"city": "Mansfield", "state": "AR", "latitude": 35.0432, "longitude": -94.22036}, {"city": "Marble Falls", "state": "AR", "latitude": 36.095121, "longitude": -93.144822}, {"city": "Marcella", "state": "AR", "latitude": 35.749654, "longitude": -91.941891}, {"city": "Marianna", "state": "AR", "latitude": 34.775929, "longitude": -90.77852}, {"city": "Marion", "state": "AR", "latitude": 35.2077, "longitude": -90.198908}, {"city": "Marked Tree", "state": "AR", "latitude": 35.534933, "longitude": -90.419387}, {"city": "Marmaduke", "state": "AR", "latitude": 36.195117, "longitude": -90.38368}, {"city": "Marshall", "state": "AR", "latitude": 35.926697, "longitude": -92.640203}, {"city": "Marvell", "state": "AR", "latitude": 34.548541, "longitude": -90.941322}, {"city": "Maumelle", "state": "AR", "latitude": 34.849085, "longitude": -92.405892}, {"city": "Mayflower", "state": "AR", "latitude": 34.966853, "longitude": -92.400102}, {"city": "Maynard", "state": "AR", "latitude": 36.438563, "longitude": -90.874921}, {"city": "Maysville", "state": "AR", "latitude": 36.401062, "longitude": -94.581278}, {"city": "Mc Caskill", "state": "AR", "latitude": 33.923042, "longitude": -93.626605}, {"city": "Mc Crory", "state": "AR", "latitude": 35.247292, "longitude": -91.179327}, {"city": "Mc Dougal", "state": "AR", "latitude": 36.379909, "longitude": -90.394093}, {"city": "Mc Gehee", "state": "AR", "latitude": 33.62971, "longitude": -91.392781}, {"city": "Mc Neil", "state": "AR", "latitude": 33.36222, "longitude": -93.193006}, {"city": "Mc Rae", "state": "AR", "latitude": 35.11322, "longitude": -91.821551},